{"type": "FeatureCollection", "features": [{"type": "Feature", "properties": {"Address": "PO Box 1587", "City": "Anniston", "State": "AL", "Name": "Anniston Museums and Gardens", "Website": "http://www.exploreamag.org"}, "geometry": {"type": "Point", "coordinates": [33.6586232, -85.8263473]}}, {"type": "Feature", "properties": {"Address": "PO Box 1968", "City": "Mobile", "State": "AL", "Name": "Gulf Coast Exploreum Science Center", "Website": "http://www.exploreum.com"}, "geometry": {"type": "Point", "coordinates": [30.6953657, -88.0398912]}}, {"type": "Feature", "properties": {"Address": "PO Box 3005", "City": "Mobile", "State": "AL", "Name": "GulfQuest (National Maritime Museum of the Gulf of Mexico)", "Website": "http://www.nationalmaritime.us"}, "geometry": {"type": "Point", "coordinates": [30.6953657, -88.0398912]}}, {"type": "Feature", "properties": {"Address": "PO Box 1507", "City": "Gadsden", "State": "AL", "Name": "Mary G. Hardin Center for Cultural Arts", "Website": "http://www.culturalarts.com"}, "geometry": {"type": "Point", "coordinates": [34.014264000000004, -86.00663859999999]}}, {"type": "Feature", "properties": {"Address": "200 19th St N", "City": "Birmingham", "State": "AL", "Name": "McWane Science Center", "Website": "http://www.mcwane.org"}, "geometry": {"type": "Point", "coordinates": [33.5148917, -86.8084032]}}, {"type": "Feature", "properties": {"Address": "4343 73rd St N", "City": "Birmingham", "State": "AL", "Name": "Southern Museum of Flight", "Website": "http://www.southernmuseumofflight.org"}, "geometry": {"type": "Point", "coordinates": [33.5631394, -86.73815080000001]}}, {"type": "Feature", "properties": {"Address": "PO Box 700015", "City": "Huntsville", "State": "AL", "Name": "U.S. Space & Rocket Center", "Website": "http://rocketcenter.com/"}, "geometry": {"type": "Point", "coordinates": [34.730368799999994, -86.5861037]}}, {"type": "Feature", "properties": {"Address": "500 Mid America Blvd", "City": "Hot Springs", "State": "AR", "Name": "Mid-America Science Museum", "Website": "http://www.midamericamuseum.org"}, "geometry": {"type": "Point", "coordinates": [34.514694399999996, -93.11625129999999]}}, {"type": "Feature", "properties": {"Address": "500 President Clinton Ave Ste 150", "City": "Little Rock", "State": "AR", "Name": "Museum of Discovery", "Website": "http://www.museumofdiscovery.org"}, "geometry": {"type": "Point", "coordinates": [34.7476094, -92.26462020000001]}}, {"type": "Feature", "properties": {"Address": "1009 Museum Way", "City": "Bentonville", "State": "AR", "Name": "Scott Family Amazeum", "Website": "http://amazeum.org/"}, "geometry": {"type": "Point", "coordinates": [36.3792444, -94.1976064]}}, {"type": "Feature", "properties": {"Address": "600 E Washington St", "City": "Phoenix", "State": "AZ", "Name": "Arizona Science Center", "Website": "http://www.azscience.org"}, "geometry": {"type": "Point", "coordinates": [33.4486735, -112.066671]}}, {"type": "Feature", "properties": {"Address": "PO Box 375", "City": "Bisbee", "State": "AZ", "Name": "Bisbee Science Exploration & Research Center", "Website": "http://www.bisbeesciencelab.org"}, "geometry": {"type": "Point", "coordinates": [31.448154700000003, -109.92840840000001]}}, {"type": "Feature", "properties": {"Address": "200 S 6th Ave", "City": "Tucson", "State": "AZ", "Name": "Children's Museum Tucson", "Website": "http://www.childrensmuseumtucson.org"}, "geometry": {"type": "Point", "coordinates": [32.2191924, -110.9693381]}}, {"type": "Feature", "properties": {"Address": "1601 East University Boulevard", "City": "Tucson", "State": "AZ", "Name": "Flandrau Science Center & Planetarium/UA Mineral Museum", "Website": "http://www.flandrau.org"}, "geometry": {"type": "Point", "coordinates": [32.2320627, -110.94781840000002]}}, {"type": "Feature", "properties": {"Address": "4800 W Gates Pass Rd", "City": "Tucson", "State": "AZ", "Name": "International Wildlife Museum", "Website": "http://www.thewildlifemuseum.org"}, "geometry": {"type": "Point", "coordinates": [32.2347315, -111.0669983]}}, {"type": "Feature", "properties": {"Address": "950 N Cherry Ave", "City": "Tucson", "State": "AZ", "Name": "Kitt Peak National Observatory Visitor Center", "Website": "http://www.noao.edu/kpvc/"}, "geometry": {"type": "Point", "coordinates": [32.233350699999995, -110.9473558]}}, {"type": "Feature", "properties": {"Address": "1400 W Mars Hill Rd", "City": "Flagstaff", "State": "AZ", "Name": "Lowell Observatory", "Website": "http://www.lowell.edu"}, "geometry": {"type": "Point", "coordinates": [35.2023295, -111.66399969999999]}}, {"type": "Feature", "properties": {"Address": "557 McReynolds Rd", "City": "Sausalito", "State": "CA", "Name": "Bay Area Discovery Museum", "Website": "http://www.BayAreaDiscoveryMuseum.org"}, "geometry": {"type": "Point", "coordinates": [37.8356576, -122.4767989]}}, {"type": "Feature", "properties": {"Address": "9500 Gilman Dr Dept 207", "City": "La Jolla", "State": "CA", "Name": "Birch Aquarium at Scripps", "Website": "http://aquarium.ucsd.edu"}, "geometry": {"type": "Point", "coordinates": [32.8799731, -117.23708400000001]}}, {"type": "Feature", "properties": {"Address": "2018 Chester Ave", "City": "Bakersfield", "State": "CA", "Name": "Buena Vista Museum of Natural History and Science", "Website": "http://www.sharktoothhill.org"}, "geometry": {"type": "Point", "coordinates": [35.3776886, -119.01848390000002]}}, {"type": "Feature", "properties": {"Address": "700 Exposition Park Dr", "City": "Los Angeles", "State": "CA", "Name": "California Science Center", "Website": "http://www.californiasciencecenter.org"}, "geometry": {"type": "Point", "coordinates": [34.0162494, -118.2873699]}}, {"type": "Feature", "properties": {"Address": "10000 Skyline Blvd", "City": "Oakland", "State": "CA", "Name": "Chabot Space & Science Center", "Website": "http://www.chabotspace.org"}, "geometry": {"type": "Point", "coordinates": [37.818716200000004, -122.18071370000001]}}, {"type": "Feature", "properties": {"Address": "221 4th St", "City": "San Francisco", "State": "CA", "Name": "Children's Creativity Museum", "Website": "http://www.creativity.org"}, "geometry": {"type": "Point", "coordinates": [37.783525, -122.4019945]}}, {"type": "Feature", "properties": {"Address": "180 Woz Way", "City": "San Jose", "State": "CA", "Name": "Children's Discovery Museum of San Jose", "Website": "http://www.cdm.org"}, "geometry": {"type": "Point", "coordinates": [37.3266953, -121.89194609999998]}}, {"type": "Feature", "properties": {"Address": "301 S Euclid St", "City": "La Habra", "State": "CA", "Name": "Children's Museum at La Habra", "Website": "http://www.lhcm.org"}, "geometry": {"type": "Point", "coordinates": [33.9296523, -117.946959]}}, {"type": "Feature", "properties": {"Address": "12400 Columbia Way", "City": "Downey", "State": "CA", "Name": "Columbia Memorial Space Center", "Website": "http://www.columbiaspacescience.org"}, "geometry": {"type": "Point", "coordinates": [33.919849600000006, -118.13361770000002]}}, {"type": "Feature", "properties": {"Address": "1401 N Shoreline Blvd", "City": "Mountain View", "State": "CA", "Name": "Computer History Museum", "Website": "http://www.computerhistory.org"}, "geometry": {"type": "Point", "coordinates": [37.414434, -122.0772642]}}, {"type": "Feature", "properties": {"Address": "1651 Coyote Point Dr", "City": "San Mateo", "State": "CA", "Name": "CuriOdyssey", "Website": "http://www.curiodyssey.org"}, "geometry": {"type": "Point", "coordinates": [37.5906763, -122.31969790000001]}}, {"type": "Feature", "properties": {"Address": "785 Spruce St", "City": "Riverside", "State": "CA", "Name": "DiscoverTorium", "Website": "http://www.discovertorium.com"}, "geometry": {"type": "Point", "coordinates": [33.989017499999996, -117.3287415]}}, {"type": "Feature", "properties": {"Address": "2500 N Main St", "City": "Santa Ana", "State": "CA", "Name": "Discovery Cube", "Website": "http://www.discoverycube.org"}, "geometry": {"type": "Point", "coordinates": [33.77025379999999, -117.86786409999998]}}, {"type": "Feature", "properties": {"Address": "17 Pier Ste 100", "City": "San Francisco", "State": "CA", "Name": "Exploratorium", "Website": "http://www.exploratorium.edu"}, "geometry": {"type": "Point", "coordinates": [37.80224070000001, -122.39815520000002]}}, {"type": "Feature", "properties": {"Address": "PO Box 1288", "City": "Davis", "State": "CA", "Name": "Explorit Science Center", "Website": "http://www.explorit.org"}, "geometry": {"type": "Point", "coordinates": [38.5449065, -121.74051670000001]}}, {"type": "Feature", "properties": {"Address": "PO Box 33303", "City": "San Diego", "State": "CA", "Name": "Fleet Science Center", "Website": "http://www.fleetscience.org"}, "geometry": {"type": "Point", "coordinates": [32.715738, -117.1610838]}}, {"type": "Feature", "properties": {"Address": "California State University, Chico", "City": "400 West 1st Street", "State": "CA", "Name": "Gateway Science Museum", "Website": "http://www.csuchico.edu/gateway"}, "geometry": {"type": "Point", "coordinates": [39.729575, -121.8473287]}}, {"type": "Feature", "properties": {"Address": "1242 G St", "City": "Arcata", "State": "CA", "Name": "Humboldt State University Natural History Museum", "Website": "http://www.humboldt.edu/natmus"}, "geometry": {"type": "Point", "coordinates": [40.871523700000004, -124.08445479999999]}}, {"type": "Feature", "properties": {"Address": "1151 Oxford Rd", "City": "San Marino", "State": "CA", "Name": "Huntington Botanical Gardens", "Website": "http://www.huntington.org"}, "geometry": {"type": "Point", "coordinates": [34.1267895, -118.11438340000001]}}, {"type": "Feature", "properties": {"Address": "4800 Oak Grove Dr", "City": "Pasadena", "State": "CA", "Name": "Jet Propulsion Laboratory", "Website": "http://www.jpl.nasa.gov"}, "geometry": {"type": "Point", "coordinates": [34.1989513, -118.17503909999998]}}, {"type": "Feature", "properties": {"Address": "3801 Chester Ave", "City": "Bakersfield", "State": "CA", "Name": "Kern County Museum", "Website": "http://www.kcmuseum.org"}, "geometry": {"type": "Point", "coordinates": [35.393502500000004, -119.01941070000001]}}, {"type": "Feature", "properties": {"Address": "480 N Arroyo Blvd", "City": "Pasadena", "State": "CA", "Name": "Kidspace Children's Museum", "Website": "http://www.kidspacemuseum.org"}, "geometry": {"type": "Point", "coordinates": [34.1554477, -118.16399709999999]}}, {"type": "Feature", "properties": {"Address": "1156 High St", "City": "Ucsc", "State": "CA", "Name": "Lick Observatory", "Website": "http://www.ucolick.org"}, "geometry": {"type": "Point", "coordinates": [36.991584700000004, -122.0582771]}}, {"type": "Feature", "properties": {"Address": "1931 1st Ave", "City": "Walnut Creek", "State": "CA", "Name": "Lindsay Wildlife Experience", "Website": "http://www.lindsaywildlife.org"}, "geometry": {"type": "Point", "coordinates": [37.9236363, -122.0757994]}}, {"type": "Feature", "properties": {"Address": "4435 1st St # 333", "City": "Livermore", "State": "CA", "Name": "Livermore Science and Society Center", "Website": "https://lvscience.org"}, "geometry": {"type": "Point", "coordinates": [37.6818745, -121.7680088]}}, {"type": "Feature", "properties": {"Address": "PO Box 4669", "City": "Aspen", "State": "CO", "Name": "Aspen Science Center", "Website": "http://www.aspensciencecenter.org"}, "geometry": {"type": "Point", "coordinates": [39.19109829999999, -106.81753870000001]}}, {"type": "Feature", "properties": {"Address": "2001 N Colorado Blvd", "City": "Denver", "State": "CO", "Name": "Denver Museum of Nature & Science", "Website": "http://www.dmns.org"}, "geometry": {"type": "Point", "coordinates": [39.7475261, -104.9428078]}}, {"type": "Feature", "properties": {"Address": "2414 Regent Drive", "City": "Campus Box 408", "State": "CO", "Name": "Fiske Planetarium and Science Center", "Website": "http://www.colorado.edu/fiske"}, "geometry": {"type": "Point", "coordinates": [40.003598700000005, -105.26342460000001]}}, {"type": "Feature", "properties": {"Address": "408 Mason Ct", "City": "Fort Collins", "State": "CO", "Name": "Fort Collins Museum of Discovery", "Website": "http://www.fcmod.org"}, "geometry": {"type": "Point", "coordinates": [40.593587299999996, -105.0779638]}}, {"type": "Feature", "properties": {"Address": "3090 Center Green Dr", "City": "Boulder", "State": "CO", "Name": "National Center for Atmospheric Research/UCAR", "Website": "http://www.ucar.edu"}, "geometry": {"type": "Point", "coordinates": [40.0311554, -105.24605430000001]}}, {"type": "Feature", "properties": {"Address": "1617 Cole Blvd MS RSF1-C137", "City": "Lakewood", "State": "CO", "Name": "National Renewable Energy Laboratory", "Website": "http://www.nrel.gov"}, "geometry": {"type": "Point", "coordinates": [39.744490899999995, -105.15200039999999]}}, {"type": "Feature", "properties": {"Address": "1333 Camino Del Rio", "City": "Durango", "State": "CO", "Name": "Powerhouse Science Center (formerly Durango Discovery Museum)", "Website": "http://www.powsci.org/"}, "geometry": {"type": "Point", "coordinates": [37.27875390000001, -107.8800003]}}, {"type": "Feature", "properties": {"Address": "4425 Arrowswest Dr", "City": "Colorado Springs", "State": "CO", "Name": "Space Foundation Discovery Center", "Website": "http://www.discoverspace.org"}, "geometry": {"type": "Point", "coordinates": [38.89571919999999, -104.86310619999999]}}, {"type": "Feature", "properties": {"Address": "1515 Walnut St Ste 300", "City": "Boulder", "State": "CO", "Name": "The Hopper", "Website": "http://www.hopperboulder.com"}, "geometry": {"type": "Point", "coordinates": [40.0179826, -105.27527490000001]}}, {"type": "Feature", "properties": {"Address": "7711 E Academy Blvd", "City": "Denver", "State": "CO", "Name": "Wings Over the Rockies Air & Space Museum", "Website": "http://www.wingsmuseum.org"}, "geometry": {"type": "Point", "coordinates": [39.72108789999999, -104.89526869999999]}}, {"type": "Feature", "properties": {"Address": "1 Museum Dr", "City": "Greenwich", "State": "CT", "Name": "Bruce Museum", "Website": "http://www.brucemuseum.org"}, "geometry": {"type": "Point", "coordinates": [41.019908, -73.6229896]}}, {"type": "Feature", "properties": {"Address": "250 Columbus Blvd", "City": "Hartford", "State": "CT", "Name": "Connecticut Science Center", "Website": "http://www.ctsciencecenter.org"}, "geometry": {"type": "Point", "coordinates": [41.7649765, -72.66897990000001]}}, {"type": "Feature", "properties": {"Address": "4450 Park Ave", "City": "Bridgeport", "State": "CT", "Name": "Discovery Museum and Planetarium", "Website": "http://www.discoverymuseum.org"}, "geometry": {"type": "Point", "coordinates": [41.2156573, -73.2338568]}}, {"type": "Feature", "properties": {"Address": "61 Main St", "City": "Torrington", "State": "CT", "Name": "KidsPlay Children's Museum", "Website": "http://www.kidsplaymuseum.org"}, "geometry": {"type": "Point", "coordinates": [41.8015522, -73.12012519999998]}}, {"type": "Feature", "properties": {"Address": "247 S Main St", "City": "Manchester", "State": "CT", "Name": "Lutz Children's Museum", "Website": "http://www.lutzmuseum.org"}, "geometry": {"type": "Point", "coordinates": [41.784901399999995, -72.5232058]}}, {"type": "Feature", "properties": {"Address": "14 New Road", "City": "Madison", "State": "CT", "Name": "Pucuda Leading Edge", "Website": "http://www.netting.com"}, "geometry": {"type": "Point", "coordinates": [41.2862423, -72.58434609999998]}}, {"type": "Feature", "properties": {"Address": "Matthews Park, 303 West Avenue", "City": "Norwalk", "State": "CT", "Name": "Stepping Stones Museum for Children", "Website": "http://www.steppingstonesmuseum.org"}, "geometry": {"type": "Point", "coordinates": [41.1100086, -73.41554090000001]}}, {"type": "Feature", "properties": {"Address": "950 Trout Brook Dr", "City": "West Hartford", "State": "CT", "Name": "The Children's Museum", "Website": "http://www.thechildrensmuseumct.org"}, "geometry": {"type": "Point", "coordinates": [41.76202670000001, -72.7367775]}}, {"type": "Feature", "properties": {"Address": "PO Box 208118", "City": "New Haven", "State": "CT", "Name": "Yale Peabody Museum of Natural History", "Website": "http://www.peabody.yale.edu"}, "geometry": {"type": "Point", "coordinates": [41.308274, -72.9278835]}}, {"type": "Feature", "properties": {"Address": "1300 Pennsylvania Ave NW", "City": "Washington", "State": "DC", "Name": "National Children's Museum", "Website": "http://www.nationalchildrensmuseum.org"}, "geometry": {"type": "Point", "coordinates": [38.8940221, -77.03062609999998]}}, {"type": "Feature", "properties": {"Address": "Smithsonian Institution", "City": "10th Street and Constitution Avenue NW", "State": "DC", "Name": "National Museum of Natural History", "Website": "http://www.mnh.si.edu"}, "geometry": {"type": "Point", "coordinates": [38.891266200000004, -77.02606540000001]}}, {"type": "Feature", "properties": {"Address": "1145 17th St NW", "City": "National Geographic Society", "State": "DC", "Name": "The National Geographic Museum", "Website": "http://www.nationalgeographic.com"}, "geometry": {"type": "Point", "coordinates": [38.90516179999999, -77.03796369999998]}}, {"type": "Feature", "properties": {"Address": "4840 Kennett Pike", "City": "Wilmington", "State": "DE", "Name": "Delaware Museum of Natural History", "Website": "http://www.delmnh.org"}, "geometry": {"type": "Point", "coordinates": [39.798185700000005, -75.60980620000001]}}, {"type": "Feature", "properties": {"Address": "PO Box 3630", "City": "Wilmington", "State": "DE", "Name": "Hagley Museum and Library", "Website": "http://www.hagley.org"}, "geometry": {"type": "Point", "coordinates": [39.744655, -75.54839090000002]}}, {"type": "Feature", "properties": {"Address": "1355 Old Baltimore Pike", "City": "Newark", "State": "DE", "Name": "Iron Hill Museum (Delaware Academy of Science)", "Website": "http://www.ironhill-museum.org"}, "geometry": {"type": "Point", "coordinates": [39.631575700000006, -75.75820300000001]}}, {"type": "Feature", "properties": {"Address": "4175 Medulla Rd", "City": "Lakeland", "State": "FL", "Name": "Aerospace Discovery at Florida Air Museum", "Website": "http://www.sun-n-fun.org/Museum.aspx"}, "geometry": {"type": "Point", "coordinates": [27.982496, -82.02763159999998]}}, {"type": "Feature", "properties": {"Address": "1519 Clearlake Rd", "City": "Eastern Florida State College", "State": "FL", "Name": "Astronaut Memorial Planetarium & Observatory", "Website": "http://www.easternflorida.edu/planet"}, "geometry": {"type": "Point", "coordinates": [28.383996999999997, -80.758169]}}, {"type": "Feature", "properties": {"Address": "904 S Main St", "City": "Gainesville", "State": "FL", "Name": "Cade Museum for Creativity and Invention", "Website": "http://www.cademuseum.org"}, "geometry": {"type": "Point", "coordinates": [29.643107300000004, -82.32581619999998]}}, {"type": "Feature", "properties": {"Address": "200 S Duval St", "City": "Tallahassee", "State": "FL", "Name": "Challenger Learning Center of Tallahassee", "Website": "http://www.challengertlh.com"}, "geometry": {"type": "Point", "coordinates": [30.4403092, -84.28342679999999]}}, {"type": "Feature", "properties": {"Address": "514 E Grace St", "City": "Punta Gorda", "State": "FL", "Name": "Charlotte County Historical Center", "Website": "http://www.charlottecountyfl.com/historical"}, "geometry": {"type": "Point", "coordinates": [26.9255203, -82.0402762]}}, {"type": "Feature", "properties": {"Address": "701 NE Sanchez Ave", "City": "Ocala", "State": "FL", "Name": "Discovery Center", "Website": "http://www.mydiscoverycenter.org"}, "geometry": {"type": "Point", "coordinates": [29.194343300000003, -82.13070669999998]}}, {"type": "Feature", "properties": {"Address": "31 Memorial Pkwy SW", "City": "Fort Walton Beach", "State": "FL", "Name": "Emerald Coast Science Center", "Website": "http://www.ecscience.org"}, "geometry": {"type": "Point", "coordinates": [30.4089, -86.628907]}}, {"type": "Feature", "properties": {"Address": "255 Live Oak Drive", "City": "Vero Beach", "State": "FL", "Name": "Environmental Learning Center", "Website": "http://www.discoverelc.org"}, "geometry": {"type": "Point", "coordinates": [27.6641863, -80.36869229999998]}}, {"type": "Feature", "properties": {"Address": "PO Box 112710", "City": "Gainesville", "State": "FL", "Name": "Florida Museum of Natural History", "Website": "http://www.floridamuseum.ufl.edu/"}, "geometry": {"type": "Point", "coordinates": [29.6530854, -82.34427740000001]}}, {"type": "Feature", "properties": {"Address": "110 W Gasparilla Plz", "City": "Tampa", "State": "FL", "Name": "Glazer Children's Museum", "Website": "http://www.glazermuseum.org"}, "geometry": {"type": "Point", "coordinates": [27.949605, -82.4616941]}}, {"type": "Feature", "properties": {"Address": "1925 4th St N", "City": "Saint Petersburg", "State": "FL", "Name": "Great Explorations Children's Museum", "Website": "http://www.greatexplorations.org"}, "geometry": {"type": "Point", "coordinates": [27.7902227, -82.6382788]}}, {"type": "Feature", "properties": {"Address": "2000 Cranford Ave", "City": "Fort Myers", "State": "FL", "Name": "IMAG History & Science Center", "Website": "http://www.i-sci.org"}, "geometry": {"type": "Point", "coordinates": [26.640557, -81.85941679999999]}}, {"type": "Feature", "properties": {"Address": "14200 US Highway 1", "City": "Juno Beach", "State": "FL", "Name": "Loggerhead Marinelife Center", "Website": "http://www.marinelife.org"}, "geometry": {"type": "Point", "coordinates": [26.8849346, -80.05597519999998]}}, {"type": "Feature", "properties": {"Address": "4801 E Fowler Ave", "City": "Tampa", "State": "FL", "Name": "MOSI (Museum of Science & Industry)", "Website": "http://www.mosi.org"}, "geometry": {"type": "Point", "coordinates": [28.0536294, -82.4044188]}}, {"type": "Feature", "properties": {"Address": "352 S Nova Rd", "City": "Daytona Beach", "State": "FL", "Name": "Museum of Arts and Sciences", "Website": "http://www.moas.org"}, "geometry": {"type": "Point", "coordinates": [29.196899600000005, -81.0369074]}}, {"type": "Feature", "properties": {"Address": "401 SW 2nd St", "City": "Fort Lauderdale", "State": "FL", "Name": "Museum of Discovery and Science", "Website": "http://www.mods.org"}, "geometry": {"type": "Point", "coordinates": [26.120718, -80.148005]}}, {"type": "Feature", "properties": {"Address": "1025 Museum Cir", "City": "Jacksonville", "State": "FL", "Name": "Museum of Science & History of Jacksonville, Inc.", "Website": "http://www.themosh.org"}, "geometry": {"type": "Point", "coordinates": [30.31886759999999, -81.65975429999999]}}, {"type": "Feature", "properties": {"Address": "777 E Princeton St", "City": "Orlando", "State": "FL", "Name": "Orlando Science Center", "Website": "http://www.osc.org"}, "geometry": {"type": "Point", "coordinates": [28.57228, -81.368341]}}, {"type": "Feature", "properties": {"Address": "PO Box 847", "City": "Pensacola", "State": "FL", "Name": "Pensacola MESS Hall", "Website": "http://www.pensacolamesshall.org"}, "geometry": {"type": "Point", "coordinates": [30.42130899999999, -87.2169149]}}, {"type": "Feature", "properties": {"Address": "1101 Biscayne Blvd", "City": "Miami", "State": "FL", "Name": "Phillip and Patricia Frost Museum of Science", "Website": "http://www.frostscience.org"}, "geometry": {"type": "Point", "coordinates": [25.7855359, -80.18794240000001]}}, {"type": "Feature", "properties": {"Address": "308 Airport Rd", "City": "Panama City", "State": "FL", "Name": "Science and Discovery Center of Northwest Florida", "Website": "http://www.scienceanddiscoverycenter.org"}, "geometry": {"type": "Point", "coordinates": [30.179902000000002, -85.6641259]}}, {"type": "Feature", "properties": {"Address": "PO Box 9265", "City": "Bradenton", "State": "FL", "Name": "South Florida Museum, Parker Manatee Aquarium, and Bishop Planetarium", "Website": "http://www.SouthFloridaMuseum.org"}, "geometry": {"type": "Point", "coordinates": [27.4989278, -82.5748194]}}, {"type": "Feature", "properties": {"Address": "4801 Dreher Trl N", "City": "West Palm Beach", "State": "FL", "Name": "South Florida Science Center and Aquarium", "Website": "http://www.sfsciencecenter.org"}, "geometry": {"type": "Point", "coordinates": [26.669249600000004, -80.0696444]}}, {"type": "Feature", "properties": {"Address": "421 N Woodland Blvd Unit 8403", "City": "Stetson University", "State": "FL", "Name": "The Gillespie Museum", "Website": "http://www.stetson.edu/other/gillespie-museum"}, "geometry": {"type": "Point", "coordinates": [29.0331533, -81.3028472]}}, {"type": "Feature", "properties": {"Address": "701 Front Ave", "City": "Columbus", "State": "GA", "Name": "Coca-Cola Space Science Center", "Website": "http://www.ccssc.org"}, "geometry": {"type": "Point", "coordinates": [32.4599147, -84.9953235]}}, {"type": "Feature", "properties": {"Address": "1600 Clifton Rd NE MS A14", "City": "Centers for Disease Control & Prevention", "State": "GA", "Name": "David J. Sencer CDC Museum", "Website": "http://www.cdc.gov/museum"}, "geometry": {"type": "Point", "coordinates": [33.7993178, -84.328008]}}, {"type": "Feature", "properties": {"Address": "156 Heaton Park Dr NE", "City": "Dekalb County School System", "State": "GA", "Name": "Fernbank Science Center", "Website": "http://fsc.fernbank.edu"}, "geometry": {"type": "Point", "coordinates": [33.7786743, -84.3181352]}}, {"type": "Feature", "properties": {"Address": "PO Box 3663", "City": "Cartersville", "State": "GA", "Name": "Tellus Science Museum", "Website": "http://www.tellusmuseum.org"}, "geometry": {"type": "Point", "coordinates": [34.1650972, -84.7999382]}}, {"type": "Feature", "properties": {"Address": "2900 Learning Campus Dr", "City": "Bettendorf", "State": "IA", "Name": "Family Museum", "Website": "http://www.familymuseum.org"}, "geometry": {"type": "Point", "coordinates": [41.5527352, -90.5023803]}}, {"type": "Feature", "properties": {"Address": "503 South St", "City": "Waterloo", "State": "IA", "Name": "Grout Museum District: Bluedorn Science Imaginarium", "Website": "http://www.groutmuseumdistrict.org"}, "geometry": {"type": "Point", "coordinates": [42.49282110000001, -92.3438137]}}, {"type": "Feature", "properties": {"Address": "1717 W 12th St", "City": "Davenport", "State": "IA", "Name": "Putnam Museum and Science Center", "Website": "http://www.putnam.org"}, "geometry": {"type": "Point", "coordinates": [41.5309722, -90.6015971]}}, {"type": "Feature", "properties": {"Address": "401 Martin Luther King Jr Pkwy", "City": "Des Moines", "State": "IA", "Name": "Science Center of Iowa and Blank IMAX Dome Theater", "Website": "http://www.sciowa.org"}, "geometry": {"type": "Point", "coordinates": [41.582657, -93.620776]}}, {"type": "Feature", "properties": {"Address": "1227 W 27th St", "City": "Cedar Falls", "State": "IA", "Name": "University of Northern Iowa Museum", "Website": "http://www.library.uni.edu/museum"}, "geometry": {"type": "Point", "coordinates": [42.514711, -92.4595681]}}, {"type": "Feature", "properties": {"Address": "131 W Myrtle St", "City": "Boise", "State": "ID", "Name": "Discovery Center of Idaho", "Website": "http://www.dcidaho.org"}, "geometry": {"type": "Point", "coordinates": [43.60853970000001, -116.19952240000002]}}, {"type": "Feature", "properties": {"Address": "737 N Main St", "City": "Rockford", "State": "IL", "Name": "Burpee Museum of Natural History", "Website": "http://www.burpee.org"}, "geometry": {"type": "Point", "coordinates": [42.2772724, -89.0881873]}}, {"type": "Feature", "properties": {"Address": "2000 5th Ave", "City": "River Grove", "State": "IL", "Name": "Cernan Earth and Space Center at Triton College", "Website": "http://www.triton.edu/cernan"}, "geometry": {"type": "Point", "coordinates": [41.91503779999999, -87.83885889999998]}}, {"type": "Feature", "properties": {"Address": "101 E Beaufort St", "City": "Normal", "State": "IL", "Name": "Children's Discovery Museum", "Website": "http://www.childrensdiscoverymuseum.net"}, "geometry": {"type": "Point", "coordinates": [40.509137599999995, -88.98378879999999]}}, {"type": "Feature", "properties": {"Address": "55 S Country Club Rd", "City": "Decatur", "State": "IL", "Name": "Children's Museum of Illinois", "Website": "http://www.cmofil.org"}, "geometry": {"type": "Point", "coordinates": [39.8280446, -88.9104603]}}, {"type": "Feature", "properties": {"Address": "711 N Main St", "City": "Rockford", "State": "IL", "Name": "Discovery Center Museum", "Website": "http://www.discoverycentermuseum.org"}, "geometry": {"type": "Point", "coordinates": [42.2769315, -89.08889559999999]}}, {"type": "Feature", "properties": {"Address": "1400 S Lake Shore Dr", "City": "Chicago", "State": "IL", "Name": "Field Museum", "Website": "http://www.fieldmuseum.org"}, "geometry": {"type": "Point", "coordinates": [41.86617329999999, -87.61698620000001]}}, {"type": "Feature", "properties": {"Address": "1524 N Lake Shore Dr", "City": "Chicago", "State": "IL", "Name": "International Museum of Surgical Science", "Website": "http://www.imss.org"}, "geometry": {"type": "Point", "coordinates": [41.910275399999996, -87.6266212]}}, {"type": "Feature", "properties": {"Address": "412 E Adams St", "City": "Springfield", "State": "IL", "Name": "Kidzeum of Health and Science", "Website": NaN}, "geometry": {"type": "Point", "coordinates": [39.800256700000006, -89.6501315]}}, {"type": "Feature", "properties": {"Address": "5700 S Lake Shore Dr", "City": "Chicago", "State": "IL", "Name": "Museum of Science and Industry", "Website": "http://www.msichicago.org"}, "geometry": {"type": "Point", "coordinates": [41.79204379999999, -87.5829263]}}, {"type": "Feature", "properties": {"Address": "346 N Neil St", "City": "Champaign", "State": "IL", "Name": "Orpheum Children's Science Museum", "Website": "http://www.orpheumkids.com"}, "geometry": {"type": "Point", "coordinates": [40.119469099999996, -88.24250550000001]}}, {"type": "Feature", "properties": {"Address": "2430 N Cannon Dr", "City": "Chicago", "State": "IL", "Name": "Peggy Notebaert Nature Museum", "Website": "http://www.naturemuseum.org"}, "geometry": {"type": "Point", "coordinates": [41.9266509, -87.63525709999998]}}, {"type": "Feature", "properties": {"Address": "2218 N Prospect Rd", "City": "Peoria", "State": "IL", "Name": "Peoria PlayHouse Children's Museum", "Website": "http://www.peoriaplayhouse.org"}, "geometry": {"type": "Point", "coordinates": [40.71463129999999, -89.57332159999999]}}, {"type": "Feature", "properties": {"Address": "222 SW Washington St", "City": "Peoria", "State": "IL", "Name": "Peoria Riverfront Museum", "Website": "http://www.peoriariverfrontmuseum.org"}, "geometry": {"type": "Point", "coordinates": [40.68945919999999, -89.5895436]}}, {"type": "Feature", "properties": {"Address": "18 W Benton St", "City": "Aurora", "State": "IL", "Name": "SciTech Hands-On Museum", "Website": "http://www.scitechmuseum.org"}, "geometry": {"type": "Point", "coordinates": [41.756235499999995, -88.3182365]}}, {"type": "Feature", "properties": {"Address": "1300 S Lake Shore Dr", "City": "Chicago", "State": "IL", "Name": "The Adler Planetarium", "Website": "http://www.adlerplanetarium.org"}, "geometry": {"type": "Point", "coordinates": [41.866330299999994, -87.60637209999999]}}, {"type": "Feature", "properties": {"Address": "1237 E Main St # 1048", "City": "Carbondale", "State": "IL", "Name": "The Science Center", "Website": "http://www.Sciencecentersi.com"}, "geometry": {"type": "Point", "coordinates": [37.7272727, -89.2167501]}}, {"type": "Feature", "properties": {"Address": "222 S Washington St", "City": "Crawfordsville", "State": "IN", "Name": "Carnegie Museum of Montgomery County", "Website": "http://www.cdpl.lib.in.us/carnegie"}, "geometry": {"type": "Point", "coordinates": [40.0396679, -86.90108409999998]}}, {"type": "Feature", "properties": {"Address": "411 SE Riverside Dr", "City": "Evansville", "State": "IN", "Name": "Evansville Museum of Arts, History and Science", "Website": "http://evansvillemuseum.org/"}, "geometry": {"type": "Point", "coordinates": [37.965188899999994, -87.57318400000003]}}, {"type": "Feature", "properties": {"Address": "600 N 4th St", "City": "Lafayette", "State": "IN", "Name": "Imagination Station", "Website": "http://www.imagination-station.org"}, "geometry": {"type": "Point", "coordinates": [40.4229419, -86.89334939999998]}}, {"type": "Feature", "properties": {"Address": "650 W Washington St", "City": "Indianapolis", "State": "IN", "Name": "Indiana State Museum and Historic Sites", "Website": "http://www.indianamuseum.org"}, "geometry": {"type": "Point", "coordinates": [39.7686921, -86.1696125]}}, {"type": "Feature", "properties": {"Address": "1200 N Minnetrista Pkwy", "City": "Muncie", "State": "IN", "Name": "Minnetrista", "Website": "http://www.minnetrista.net"}, "geometry": {"type": "Point", "coordinates": [40.205338, -85.38816700000001]}}, {"type": "Feature", "properties": {"Address": "PO Box 544", "City": "515 South High Street", "State": "IN", "Name": "Muncie Children's Museum", "Website": "http://www.munciemuseum.com"}, "geometry": {"type": "Point", "coordinates": [40.189712899999996, -85.38812999999998]}}, {"type": "Feature", "properties": {"Address": "1950 N Clinton St", "City": "Fort Wayne", "State": "IN", "Name": "Science Central", "Website": "http://www.sciencecentral.org"}, "geometry": {"type": "Point", "coordinates": [41.0917696, -85.1393473]}}, {"type": "Feature", "properties": {"Address": "727 Wabash Ave", "City": "Terre Haute", "State": "IN", "Name": "Terre Haute Children's Museum", "Website": "http://www.terrehautechildrensmuseum.com"}, "geometry": {"type": "Point", "coordinates": [39.4662645, -87.40595359999998]}}, {"type": "Feature", "properties": {"Address": "PO Box 3000", "City": "Indianapolis", "State": "IN", "Name": "The Children's Museum of Indianapolis", "Website": "http://www.childrensmuseum.org"}, "geometry": {"type": "Point", "coordinates": [39.810613200000006, -86.15789170000001]}}, {"type": "Feature", "properties": {"Address": "826 N Graham Ave", "City": "Indianapolis", "State": "IN", "Name": "The DaVinci Pursuit", "Website": "http://www.thedavincipursuit.com"}, "geometry": {"type": "Point", "coordinates": [39.7787404, -86.0688043]}}, {"type": "Feature", "properties": {"Address": "PO Box 996", "City": "308 West 4th Street", "State": "IN", "Name": "WonderLab Museum of Science, Health and Technology", "Website": "http://www.wonderlab.org"}, "geometry": {"type": "Point", "coordinates": [39.1659151, -86.53663509999998]}}, {"type": "Feature", "properties": {"Address": "1100 N Plum St", "City": "Hutchinson", "State": "KS", "Name": "Cosmosphere (formerly Kansas Cosmosphere and Space Center)", "Website": "http://www.cosmo.org"}, "geometry": {"type": "Point", "coordinates": [38.0654277, -97.9215875]}}, {"type": "Feature", "properties": {"Address": "300 N McLean Blvd", "City": "Wichita", "State": "KS", "Name": "Exploration Place, The Sedgwick County Science and Discovery Center", "Website": "http://www.exploration.org"}, "geometry": {"type": "Point", "coordinates": [37.689464, -97.34820040000001]}}, {"type": "Feature", "properties": {"Address": "315 S 3rd St", "City": "Manhattan", "State": "KS", "Name": "Flint Hills Discovery Center", "Website": "http://www.flinthillsdiscovery.org"}, "geometry": {"type": "Point", "coordinates": [39.1764393, -96.5599485]}}, {"type": "Feature", "properties": {"Address": "3000 Sternberg Dr", "City": "Fort Hays State University", "State": "KS", "Name": "Sternberg Museum of Natural History", "Website": "http://sternberg.fhsu.edu/"}, "geometry": {"type": "Point", "coordinates": [38.8892355, -99.2997574]}}, {"type": "Feature", "properties": {"Address": "1345 Jayhawk Blvd", "City": "Dyche Hall", "State": "KS", "Name": "University of Kansas Natural History Museum", "Website": "http://naturalhistory.ku.edu"}, "geometry": {"type": "Point", "coordinates": [38.958544700000004, -95.2436958]}}, {"type": "Feature", "properties": {"Address": "1 Bert Combs Dr", "City": "Prestonsburg", "State": "KY", "Name": "East Kentucky Science Center & Planetarium", "Website": "http://www.bigsandy.kctcs.edu/EKSC.aspx"}, "geometry": {"type": "Point", "coordinates": [37.687717, -82.7785823]}}, {"type": "Feature", "properties": {"Address": "1620 Winchester Ave", "City": "Ashland", "State": "KY", "Name": "Highlands Museum & Discovery Center, Inc.", "Website": "http://www.highlandsmuseum.com"}, "geometry": {"type": "Point", "coordinates": [38.478038299999994, -82.63918629999998]}}, {"type": "Feature", "properties": {"Address": "800 Pleasant St", "City": "Paris", "State": "KY", "Name": "Hopewell Museum", "Website": "http://www.hopewellmuseum.org"}, "geometry": {"type": "Point", "coordinates": [38.208898100000006, -84.2513803]}}, {"type": "Feature", "properties": {"Address": "727 W Main St", "City": "Louisville", "State": "KY", "Name": "Kentucky Science Center", "Website": "http://www.KYScienceCenter.org"}, "geometry": {"type": "Point", "coordinates": [38.2576692, -85.7627395]}}, {"type": "Feature", "properties": {"Address": "122 E 2nd St", "City": "Owensboro", "State": "KY", "Name": "Owensboro Museum of Science and History", "Website": "http://www.owensboromuseum.com"}, "geometry": {"type": "Point", "coordinates": [37.774583899999996, -87.1102121]}}, {"type": "Feature", "properties": {"Address": "117 S Water St", "City": "Paducah", "State": "KY", "Name": "River Discovery Center", "Website": "http://www.riverdiscoverycenter.org"}, "geometry": {"type": "Point", "coordinates": [37.08769230000001, -88.5940811]}}, {"type": "Feature", "properties": {"Address": "362 N Martin Luther King Blvd", "City": "Lexington", "State": "KY", "Name": "The Living Arts & Science Center", "Website": "http://www.lasclex.org"}, "geometry": {"type": "Point", "coordinates": [38.0487799, -84.48860140000001]}}, {"type": "Feature", "properties": {"Address": "433 Jefferson St", "City": "Lafayette", "State": "LA", "Name": "Lafayette Science Museum", "Website": "http://www.lafayettesciencemuseum.org"}, "geometry": {"type": "Point", "coordinates": [30.225580600000004, -92.017792]}}, {"type": "Feature", "properties": {"Address": "PO Box 940", "City": "Livingston", "State": "LA", "Name": "LIGO Livingston", "Website": "http://www.ligo-la.caltech.edu"}, "geometry": {"type": "Point", "coordinates": [30.495787699999997, -90.7475427]}}, {"type": "Feature", "properties": {"Address": "PO Box 3373", "City": "Baton Rouge", "State": "LA", "Name": "Louisiana Art and Science Museum", "Website": "http://www.lasm.org"}, "geometry": {"type": "Point", "coordinates": [30.451467699999995, -91.1871466]}}, {"type": "Feature", "properties": {"Address": "420 Julia St", "City": "New Orleans", "State": "LA", "Name": "Louisiana Children's Museum", "Website": "http://www.lcm.org"}, "geometry": {"type": "Point", "coordinates": [29.9448549, -90.06818050000001]}}, {"type": "Feature", "properties": {"Address": "820 Clyde Fant Pkwy", "City": "Shreveport", "State": "LA", "Name": "Red River STEM, Inc. DBA Sci-Port Discovery Center", "Website": "http://www.sci-port.org"}, "geometry": {"type": "Point", "coordinates": [32.513374600000006, -93.7420014]}}, {"type": "Feature", "properties": {"Address": "39 South St Route 7", "City": "Pittsfield", "State": "MA", "Name": "Berkshire Museum", "Website": "http://www.berkshiremuseum.org"}, "geometry": {"type": "Point", "coordinates": [42.447320500000004, -73.25372259999999]}}, {"type": "Feature", "properties": {"Address": "308 Congress St Ste 2", "City": "Boston", "State": "MA", "Name": "Boston Children's Museum", "Website": "http://www.bostonchildrensmuseum.org"}, "geometry": {"type": "Point", "coordinates": [42.3519736, -71.04968389999998]}}, {"type": "Feature", "properties": {"Address": "831 Orleans Rd", "City": "PO Box 421", "State": "MA", "Name": "Chatham Marconi Maritime Center", "Website": "http://www.chathammarconi.org"}, "geometry": {"type": "Point", "coordinates": [41.703494, -69.98015579999999]}}, {"type": "Feature", "properties": {"Address": "100 State St", "City": "Framingham", "State": "MA", "Name": "Christa Corrigan McAuliffe Center for Integrated Science Learning at FSU", "Website": "http://www.christa.org"}, "geometry": {"type": "Point", "coordinates": [42.298107200000004, -71.436075]}}, {"type": "Feature", "properties": {"Address": "177 Main St", "City": "Acton", "State": "MA", "Name": "Discovery Museum", "Website": "http://www.discoveryacton.org"}, "geometry": {"type": "Point", "coordinates": [42.464745, -71.45604920000001]}}, {"type": "Feature", "properties": {"Address": "222 Harrington Way", "City": "Worcester", "State": "MA", "Name": "EcoTarium", "Website": "http://www.ecotarium.org"}, "geometry": {"type": "Point", "coordinates": [42.264100899999995, -71.76606600000001]}}, {"type": "Feature", "properties": {"Address": "26 Oxford St", "City": "Cambridge", "State": "MA", "Name": "Harvard Museums of Science & Culture", "Website": "http://hmsc.harvard.edu/"}, "geometry": {"type": "Point", "coordinates": [42.37851360000001, -71.1156073]}}, {"type": "Feature", "properties": {"Address": "265 Massachusetts Ave Bldg 2", "City": "Cambridge", "State": "MA", "Name": "MIT Museum", "Website": "http://web.mit.edu/museum"}, "geometry": {"type": "Point", "coordinates": [42.362253700000004, -71.09753719999998]}}, {"type": "Feature", "properties": {"Address": "1 Science Park", "City": "Boston", "State": "MA", "Name": "Museum of Science", "Website": "http://www.mos.org"}, "geometry": {"type": "Point", "coordinates": [42.36779110000001, -71.0708196]}}, {"type": "Feature", "properties": {"Address": "21 Edwards St", "City": "Springfield", "State": "MA", "Name": "Springfield Museums", "Website": "http://www.springfieldmuseums.org"}, "geometry": {"type": "Point", "coordinates": [42.1036571, -72.58640489999998]}}, {"type": "Feature", "properties": {"Address": "MS #16", "City": "Woods Hole", "State": "MA", "Name": "Woods Hole Oceanographic Institution", "Website": "http://www.whoi.edu"}, "geometry": {"type": "Point", "coordinates": [41.5264977, -70.6730857]}}, {"type": "Feature", "properties": {"Address": "1985 Corporal Frank Scott Dr", "City": "College Park", "State": "MD", "Name": "College Park Aviation Museum", "Website": "http://www.collegeparkaviationmuseum.com/"}, "geometry": {"type": "Point", "coordinates": [38.978835499999995, -76.922275]}}, {"type": "Feature", "properties": {"Address": "101 W Washington St", "City": "Hagerstown", "State": "MD", "Name": "Discovery Station at Hagerstown, Inc.", "Website": "http://www.discoverystation.org"}, "geometry": {"type": "Point", "coordinates": [39.64304620000001, -77.7230546]}}, {"type": "Feature", "properties": {"Address": "601 Light St", "City": "Baltimore", "State": "MD", "Name": "Maryland Science Center", "Website": "http://www.marylandsciencecenter.org"}, "geometry": {"type": "Point", "coordinates": [39.28134920000001, -76.61211759999998]}}, {"type": "Feature", "properties": {"Address": "9601 Medical Center Dr # 320", "City": "Jhu Montgomery County Campus", "State": "MD", "Name": "Rockville Science Center", "Website": "http://www.rockvillesciencecenter.org"}, "geometry": {"type": "Point", "coordinates": [39.1026674, -77.1983271]}}, {"type": "Feature", "properties": {"Address": "1510 Stone Post Ct", "City": "Bel Air", "State": "MD", "Name": "Van Reiner", "Website": NaN}, "geometry": {"type": "Point", "coordinates": [39.523256599999996, -76.30096929999998]}}, {"type": "Feature", "properties": {"Address": "171 Capitol St Ste 2", "City": "Augusta", "State": "ME", "Name": "Children's Discovery Museum, Maine", "Website": "http://www.childrensdiscoverymuseum.org"}, "geometry": {"type": "Point", "coordinates": [44.3102235, -69.79131149999999]}}, {"type": "Feature", "properties": {"Address": "PO Box 159", "City": "Hinckley", "State": "ME", "Name": "L. C. Bates Museum", "Website": "http://www.gwh.org/lcbates"}, "geometry": {"type": "Point", "coordinates": [44.6853637, -69.63348609999998]}}, {"type": "Feature", "properties": {"Address": "74 Main St", "City": "Bangor", "State": "ME", "Name": "Maine Discovery Museum", "Website": "http://www.mainediscoverymuseum.org"}, "geometry": {"type": "Point", "coordinates": [44.8001317, -68.7715977]}}, {"type": "Feature", "properties": {"Address": "6151 Portage Rd", "City": "Portage", "State": "MI", "Name": "Air Zoo", "Website": "http://www.airzoo.org"}, "geometry": {"type": "Point", "coordinates": [42.227430600000005, -85.55752729999998]}}, {"type": "Feature", "properties": {"Address": "1801 W Saint Andrews Rd", "City": "Midland", "State": "MI", "Name": "Alden B. Dow Museum of Science & Art", "Website": "http://www.midlandcenter.org"}, "geometry": {"type": "Point", "coordinates": [43.6244991, -84.2497755]}}, {"type": "Feature", "properties": {"Address": "220 E Ann St", "City": "Ann Arbor", "State": "MI", "Name": "Ann Arbor Hands-On Museum", "Website": "http://www.aahom.org"}, "geometry": {"type": "Point", "coordinates": [42.2817215, -83.74655729999999]}}, {"type": "Feature", "properties": {"Address": "PO Box 801", "City": "39221 Woodward Avenue", "State": "MI", "Name": "Cranbrook Institute of Science", "Website": "http://science.cranbrook.edu"}, "geometry": {"type": "Point", "coordinates": [42.5727665, -83.2505171]}}, {"type": "Feature", "properties": {"Address": "1602 University Ave", "City": "Flint", "State": "MI", "Name": "Flint Children's Museum", "Website": "http://www.flintchildrensmuseum.org"}, "geometry": {"type": "Point", "coordinates": [43.014043, -83.71177800000001]}}, {"type": "Feature", "properties": {"Address": "272 Pearl St NW", "City": "Grand Rapids", "State": "MI", "Name": "Grand Rapids Public Museum", "Website": "http://www.grpm.org"}, "geometry": {"type": "Point", "coordinates": [42.96570699999999, -85.676671]}}, {"type": "Feature", "properties": {"Address": "200 Museum Dr", "City": "Lansing", "State": "MI", "Name": "Impression 5 Science Center", "Website": "http://www.impression5.org"}, "geometry": {"type": "Point", "coordinates": [42.732231299999995, -84.5481819]}}, {"type": "Feature", "properties": {"Address": "175 Limit St", "City": "Battle Creek", "State": "MI", "Name": "Kingman Museum", "Website": "http://www.kingmanmuseum.org"}, "geometry": {"type": "Point", "coordinates": [42.33852520000001, -85.21361739999998]}}, {"type": "Feature", "properties": {"Address": "5020 John R St", "City": "Detroit", "State": "MI", "Name": "Michigan Science Center", "Website": "http://www.mi-sci.org"}, "geometry": {"type": "Point", "coordinates": [42.3585365, -83.0620071]}}, {"type": "Feature", "properties": {"Address": "4190 E Court St", "City": "Burton", "State": "MI", "Name": "Sloan*Longway", "Website": "http://www.sloanlongway.org"}, "geometry": {"type": "Point", "coordinates": [43.0165896, -83.6296871]}}, {"type": "Feature", "properties": {"Address": "20900 Oakwood Blvd", "City": "Dearborn", "State": "MI", "Name": "The Henry Ford", "Website": "http://www.thehenryford.org/"}, "geometry": {"type": "Point", "coordinates": [42.3002415, -83.2333161]}}, {"type": "Feature", "properties": {"Address": "1109 Geddes Ave", "City": "Ann Arbor", "State": "MI", "Name": "University of Michigan Museum of Natural History", "Website": "http://www.ummnh.org"}, "geometry": {"type": "Point", "coordinates": [42.2783824, -83.73444119999998]}}, {"type": "Feature", "properties": {"Address": "1346 Bluff St", "City": "Muskegon", "State": "MI", "Name": "USS Silversides Submarine Museum", "Website": "http://www.silversidesmuseum.org"}, "geometry": {"type": "Point", "coordinates": [43.228757200000004, -86.3350162]}}, {"type": "Feature", "properties": {"Address": "47884 D St", "City": "Belleville", "State": "MI", "Name": "Yankee Air Museum", "Website": "http://www.yankeeairmuseum.org/"}, "geometry": {"type": "Point", "coordinates": [42.2391224, -83.5082618]}}, {"type": "Feature", "properties": {"Address": "2088 Larpenteur Ave W", "City": "University of Minnesota", "State": "MN", "Name": "Bell Museum of Natural History", "Website": "http://www.bellmuseum.umn.edu/"}, "geometry": {"type": "Point", "coordinates": [44.99115820000001, -93.18789749999999]}}, {"type": "Feature", "properties": {"Address": "115 S 29th Ave W", "City": "Duluth", "State": "MN", "Name": "Duluth Children's Museum", "Website": "http://www.duluthchildrensmuseum.org"}, "geometry": {"type": "Point", "coordinates": [46.75817850000001, -92.13265159999999]}}, {"type": "Feature", "properties": {"Address": "7650 Edinborough Way", "City": "Edina", "State": "MN", "Name": "Gopher Sport/STEM Supplies", "Website": "https://www.stem-supplies.com/"}, "geometry": {"type": "Point", "coordinates": [44.86386029999999, -93.3249627]}}, {"type": "Feature", "properties": {"Address": "413 Beltrami Ave NW", "City": "Bemidji", "State": "MN", "Name": "Headwaters Science Center", "Website": "http://www.hscbemidji.org"}, "geometry": {"type": "Point", "coordinates": [47.47224509999999, -94.8816752]}}, {"type": "Feature", "properties": {"Address": "PO Box 157", "City": "Moorhead", "State": "MN", "Name": "Historical and Cultural Society of Clay County", "Website": "http://www.hcscconline.org"}, "geometry": {"type": "Point", "coordinates": [46.8737648, -96.7678039]}}, {"type": "Feature", "properties": {"Address": "7210 Fremont St", "City": "Duluth", "State": "MN", "Name": "Lake Superior Zoo", "Website": "http://www.lszooduluth.org/"}, "geometry": {"type": "Point", "coordinates": [46.7257315, -92.1905574]}}, {"type": "Feature", "properties": {"Address": "120 Kellogg Blvd W", "City": "Saint Paul", "State": "MN", "Name": "Science Museum of Minnesota", "Website": "http://www.smm.org"}, "geometry": {"type": "Point", "coordinates": [44.9424869, -93.0987984]}}, {"type": "Feature", "properties": {"Address": "3537 Zenith Ave S", "City": "Minneapolis", "State": "MN", "Name": "The Bakken Museum", "Website": "http://www.thebakken.org"}, "geometry": {"type": "Point", "coordinates": [44.9384453, -93.32132800000001]}}, {"type": "Feature", "properties": {"Address": "9740 Grand Ave S", "City": "Bloomington", "State": "MN", "Name": "The Works Museum", "Website": "http://www.theworks.org"}, "geometry": {"type": "Point", "coordinates": [44.8271468, -93.2864227]}}, {"type": "Feature", "properties": {"Address": "PO Box 182", "City": "Malden", "State": "MO", "Name": "Bootheel Youth Museum", "Website": "http://www.bootheelyouthmuseum.org"}, "geometry": {"type": "Point", "coordinates": [36.5570028, -89.9664798]}}, {"type": "Feature", "properties": {"Address": "438 E Saint Louis St", "City": "Springfield", "State": "MO", "Name": "Discovery Center of Springfield, Inc.", "Website": "http://www.discoverycenter.org"}, "geometry": {"type": "Point", "coordinates": [37.208498399999996, -93.2886241]}}, {"type": "Feature", "properties": {"Address": "5050 Oakland Ave", "City": "Saint Louis", "State": "MO", "Name": "Saint Louis Science Center", "Website": "http://www.slsc.org"}, "geometry": {"type": "Point", "coordinates": [38.6289758, -90.2707623]}}, {"type": "Feature", "properties": {"Address": "30 W Pershing Rd Ste 400", "City": "Kansas City", "State": "MO", "Name": "Science City at Union Station", "Website": "http://www.sciencecity.com"}, "geometry": {"type": "Point", "coordinates": [39.0853282, -94.5855784]}}, {"type": "Feature", "properties": {"Address": "PO Box 580", "City": "Pearlington", "State": "MS", "Name": "INFINITY Science Center", "Website": "http://visitinfinity.com"}, "geometry": {"type": "Point", "coordinates": [30.2465843, -89.61116729999998]}}, {"type": "Feature", "properties": {"Address": "PO Box 55409", "City": "Jackson", "State": "MS", "Name": "Mississippi Children's Museum", "Website": "http://www.mississippichildrensmuseum.com"}, "geometry": {"type": "Point", "coordinates": [32.298757300000005, -90.1848103]}}, {"type": "Feature", "properties": {"Address": "1 Convention Center Plz", "City": "Hattiesburg", "State": "MS", "Name": "Mississippi Inquisitorium (formerly Hattiesburg Convention Commission)", "Website": "http://www.hattiesburgconventioncommission.com"}, "geometry": {"type": "Point", "coordinates": [31.3554267, -89.340852]}}, {"type": "Feature", "properties": {"Address": "2148 Riverside Dr", "City": "Jackson", "State": "MS", "Name": "Mississippi Museum of Natural Science", "Website": "http://www.mdwfp.com/museum.aspx"}, "geometry": {"type": "Point", "coordinates": [32.3250917, -90.1573256]}}, {"type": "Feature", "properties": {"Address": "995 Carousel Way", "City": "Helena", "State": "MT", "Name": "ExplorationWorks", "Website": "http://www.explorationworks.org"}, "geometry": {"type": "Point", "coordinates": [46.5975966, -112.0362513]}}, {"type": "Feature", "properties": {"Address": "120 Hickory St Ste A", "City": "Missoula", "State": "MT", "Name": "Montana Natural History Center", "Website": "http://www.montananaturalist.org/"}, "geometry": {"type": "Point", "coordinates": [46.8705771, -114.00596159999999]}}, {"type": "Feature", "properties": {"Address": "600 W Kagy Blvd", "City": "Montana State University", "State": "MT", "Name": "Museum of the Rockies", "Website": "http://www.museumoftherockies.org"}, "geometry": {"type": "Point", "coordinates": [45.66572619999999, -111.04797279999998]}}, {"type": "Feature", "properties": {"Address": "812 Toole Ave Ste A", "City": "Missoula", "State": "MT", "Name": "spectrUM Discovery Area", "Website": "http://spectrum.umt.edu/"}, "geometry": {"type": "Point", "coordinates": [46.87823299999999, -114.0021992]}}, {"type": "Feature", "properties": {"Address": "PO Box 1617", "City": "Asheville", "State": "NC", "Name": "Asheville Museum of Science", "Website": "http://www.ashevillescience.org"}, "geometry": {"type": "Point", "coordinates": [35.5950581, -82.5514869]}}, {"type": "Feature", "properties": {"Address": "814 Market St", "City": "Wilmington", "State": "NC", "Name": "Cape Fear Museum of History & Science", "Website": "http://www.capefearmuseum.com"}, "geometry": {"type": "Point", "coordinates": [34.2358542, -77.93833359999998]}}, {"type": "Feature", "properties": {"Address": "PO Box 2431", "City": "Hickory", "State": "NC", "Name": "Catawba Science Center", "Website": "http://www.catawbascience.org"}, "geometry": {"type": "Point", "coordinates": [35.7344538, -81.3444573]}}, {"type": "Feature", "properties": {"Address": "301 N Tryon St", "City": "Charlotte", "State": "NC", "Name": "Discovery Place, Inc.", "Website": "http://www.discoveryplace.org"}, "geometry": {"type": "Point", "coordinates": [35.2292981, -80.8408062]}}, {"type": "Feature", "properties": {"Address": "4301 Lawndale Dr", "City": "Greensboro", "State": "NC", "Name": "Greensboro Science Center", "Website": "http://www.greensboroscience.org"}, "geometry": {"type": "Point", "coordinates": [36.1299974, -79.83240390000002]}}, {"type": "Feature", "properties": {"Address": "PO Box 2127", "City": "Wilson", "State": "NC", "Name": "Imagination Station Science and History Museum", "Website": "http://www.scienceandhistory.org"}, "geometry": {"type": "Point", "coordinates": [35.7212689, -77.91553950000001]}}, {"type": "Feature", "properties": {"Address": "270 Gay St", "City": "Rocky Mount", "State": "NC", "Name": "Imperial Centre for the Arts & Sciences (Children's Museum & Science Center)", "Website": "http://imperialcentre.org/"}, "geometry": {"type": "Point", "coordinates": [35.946974299999994, -77.79642940000002]}}, {"type": "Feature", "properties": {"Address": "400 W Hanes Mill Rd", "City": "Winston Salem", "State": "NC", "Name": "Kaleideum North", "Website": "http://www.sciworks.org"}, "geometry": {"type": "Point", "coordinates": [36.182751, -80.28019300000001]}}, {"type": "Feature", "properties": {"Address": "201 E Hargett St", "City": "Raleigh", "State": "NC", "Name": "Marbles Kids Museum", "Website": "http://www.marbleskidsmuseum.org"}, "geometry": {"type": "Point", "coordinates": [35.778514200000004, -78.63623879999999]}}, {"type": "Feature", "properties": {"Address": "Cb# 3480", "City": "University of North Carolina", "State": "NC", "Name": "Morehead Planetarium and Science Center", "Website": "http://www.moreheadplanetarium.org"}, "geometry": {"type": "Point", "coordinates": [35.904912200000005, -79.04691340000001]}}, {"type": "Feature", "properties": {"Address": "433 W Murray Ave", "City": "Durham", "State": "NC", "Name": "Museum of Life and Science", "Website": "http://www.lifeandscience.org"}, "geometry": {"type": "Point", "coordinates": [36.0293105, -78.89927759999998]}}, {"type": "Feature", "properties": {"Address": "11 W Jones St", "City": "Raleigh", "State": "NC", "Name": "North Carolina Museum of Natural Sciences", "Website": "http://www.naturalsciences.org"}, "geometry": {"type": "Point", "coordinates": [35.78216810000001, -78.63925309999998]}}, {"type": "Feature", "properties": {"Address": "PO Box 69", "City": "Spencer", "State": "NC", "Name": "North Carolina Transportation Museum Foundation", "Website": "http://www.nctrans.org"}, "geometry": {"type": "Point", "coordinates": [35.6923614, -80.43477999999998]}}, {"type": "Feature", "properties": {"Address": "611 E Main St", "City": "Elizabeth City", "State": "NC", "Name": "Port Discover: Northeastern North Carolina's Center for Hands-On Science", "Website": "http://www.portdiscover.org"}, "geometry": {"type": "Point", "coordinates": [36.2995009, -76.219229]}}, {"type": "Feature", "properties": {"Address": "1500 E Garrison Blvd", "City": "Gastonia", "State": "NC", "Name": "Schiele Museum of Natural History and Planetarium, Inc.", "Website": "http://www.schielemuseum.org"}, "geometry": {"type": "Point", "coordinates": [35.25321829999999, -81.15898659999998]}}, {"type": "Feature", "properties": {"Address": "PO Box 19151", "City": "C/O Friends of the Wnc Nature Center", "State": "NC", "Name": "Western North Carolina Nature Center", "Website": "http://www.wildwnc.org"}, "geometry": {"type": "Point", "coordinates": [35.580665, -82.491987]}}, {"type": "Feature", "properties": {"Address": "1810 Schafer St Ste 1", "City": "Bismarck", "State": "ND", "Name": "Gateway to Science", "Website": "http://www.gatewaytoscience.org"}, "geometry": {"type": "Point", "coordinates": [46.8248097, -100.8157671]}}, {"type": "Feature", "properties": {"Address": "208 16th St", "City": "Aurora", "State": "NE", "Name": "Edgerton Explorit Center", "Website": "http://www.edgerton.org"}, "geometry": {"type": "Point", "coordinates": [40.858612, -97.9959276]}}, {"type": "Feature", "properties": {"Address": "1330 N Burlington Ave", "City": "Hastings", "State": "NE", "Name": "Hastings Museum", "Website": "http://www.hastingsmuseum.org/"}, "geometry": {"type": "Point", "coordinates": [40.600134600000004, -98.3914409]}}, {"type": "Feature", "properties": {"Address": "500 S 20th St", "City": "Omaha", "State": "NE", "Name": "Omaha Children's Museum", "Website": "http://www.ocm.org"}, "geometry": {"type": "Point", "coordinates": [41.2550211, -95.942581]}}, {"type": "Feature", "properties": {"Address": "307 Morrill Hall", "City": "University of Nebraska-Lincoln", "State": "NE", "Name": "University of Nebraska State Museum of Natural History", "Website": "http://www.museum.unl.edu"}, "geometry": {"type": "Point", "coordinates": [40.8198988, -96.7018564]}}, {"type": "Feature", "properties": {"Address": "2 Institute Dr", "City": "Concord", "State": "NH", "Name": "McAuliffe-Shepard Discovery Center", "Website": "http://www.starhop.com"}, "geometry": {"type": "Point", "coordinates": [43.224175200000005, -71.53261280000001]}}, {"type": "Feature", "properties": {"Address": "PO Box 2310", "City": "North Conway", "State": "NH", "Name": "Mount Washington Observatory", "Website": "http://www.mountwashington.org"}, "geometry": {"type": "Point", "coordinates": [44.0511215, -71.12286259999998]}}, {"type": "Feature", "properties": {"Address": "200 Bedford St", "City": "Manchester", "State": "NH", "Name": "SEE Science Center", "Website": "http://www.see-sciencecenter.org"}, "geometry": {"type": "Point", "coordinates": [42.989268700000004, -71.46806090000001]}}, {"type": "Feature", "properties": {"Address": "6 Washington St", "City": "Dover", "State": "NH", "Name": "The Children's Museum of New Hampshire", "Website": "http://www.childrens-museum.org"}, "geometry": {"type": "Point", "coordinates": [43.1948505, -70.8730321]}}, {"type": "Feature", "properties": {"Address": "2201 Marconi Rd", "City": "Wall Township", "State": "NJ", "Name": "Information Age Learning Center", "Website": "http://www.infoage.org"}, "geometry": {"type": "Point", "coordinates": [40.1858498, -74.05936849999998]}}, {"type": "Feature", "properties": {"Address": "222 Jersey City Blvd", "City": "Liberty State Park", "State": "NJ", "Name": "Liberty Science Center", "Website": "http://www.lsc.org"}, "geometry": {"type": "Point", "coordinates": [40.7086599, -74.0547212]}}, {"type": "Feature", "properties": {"Address": "PO Box 530", "City": "Trenton", "State": "NJ", "Name": "New Jersey State Museum", "Website": "http://www.statemuseum.nj.gov"}, "geometry": {"type": "Point", "coordinates": [40.2205824, -74.75971700000001]}}, {"type": "Feature", "properties": {"Address": "PO Box 1663", "City": "Mailstop C330", "State": "NM", "Name": "Bradbury Science Museum, Los Alamos National Laboratory", "Website": "http://www.lanl.gov/museum"}, "geometry": {"type": "Point", "coordinates": [35.8800364, -106.3031138]}}, {"type": "Feature", "properties": {"Address": "1701 Mountain Rd NW", "City": "Albuquerque", "State": "NM", "Name": "Explora", "Website": "http://www.explora.us"}, "geometry": {"type": "Point", "coordinates": [35.097393700000005, -106.66399399999999]}}, {"type": "Feature", "properties": {"Address": "3041 E Main St", "City": "Farmington", "State": "NM", "Name": "Farmington Museum", "Website": "http://www.farmingtonmuseum.org"}, "geometry": {"type": "Point", "coordinates": [36.744336, -108.16426909999998]}}, {"type": "Feature", "properties": {"Address": "411 N Main St", "City": "Las Cruces", "State": "NM", "Name": "Las Cruces Museum of Nature and Science", "Website": "http://www.las-cruces.org/departments/community-and-cultural-services/museum-system/museum-of-nature-and-science"}, "geometry": {"type": "Point", "coordinates": [32.312393199999995, -106.779724]}}, {"type": "Feature", "properties": {"Address": "601 Eubank Blvd SE", "City": "Albuquerque", "State": "NM", "Name": "National Museum of Nuclear Science & History", "Website": "http://www.nuclearmuseum.org"}, "geometry": {"type": "Point", "coordinates": [35.065931299999995, -106.53378459999999]}}, {"type": "Feature", "properties": {"Address": "1801 Mountain Rd NW", "City": "Albuquerque", "State": "NM", "Name": "New Mexico Museum of Natural History and Science", "Website": "http://www.naturalhistoryfoundation.org"}, "geometry": {"type": "Point", "coordinates": [35.0980979, -106.66583659999999]}}, {"type": "Feature", "properties": {"Address": "PO Box 5430", "City": "Alamogordo", "State": "NM", "Name": "The New Mexico Museum of Space History", "Website": "http://www.nmspacemuseum.org"}, "geometry": {"type": "Point", "coordinates": [32.8995325, -105.96026499999999]}}, {"type": "Feature", "properties": {"Address": "360 Promenade Pl", "City": "Las Vegas", "State": "NV", "Name": "DISCOVERY Children's Museum", "Website": "http://www.discoverykidslv.org"}, "geometry": {"type": "Point", "coordinates": [36.168704600000005, -115.15255520000001]}}, {"type": "Feature", "properties": {"Address": "University of Nevada, Reno / MS272", "City": "Reno", "State": "NV", "Name": "Fleischmann Planetarium and Science Center", "Website": "http://www.planetarium.unr.edu"}, "geometry": {"type": "Point", "coordinates": [39.5441917, -119.816397]}}, {"type": "Feature", "properties": {"Address": "900 Las Vegas Blvd N", "City": "Las Vegas", "State": "NV", "Name": "Las Vegas Natural History Museum", "Website": "http://www.lvnhm.org"}, "geometry": {"type": "Point", "coordinates": [36.1799369, -115.1337942]}}, {"type": "Feature", "properties": {"Address": "490 S Center St", "City": "Reno", "State": "NV", "Name": "Terry Lee Wells Nevada Discovery Museum", "Website": "http://www.nvdm.org"}, "geometry": {"type": "Point", "coordinates": [39.5216374, -119.8089006]}}, {"type": "Feature", "properties": {"Address": "333 S Valley View Blvd", "City": "Las Vegas", "State": "NV", "Name": "The Springs Preserve", "Website": "http://www.springspreserve.org"}, "geometry": {"type": "Point", "coordinates": [36.1713466, -115.18993490000001]}}, {"type": "Feature", "properties": {"Address": "Netzer Administration Building", "City": "Suny College at Oneonta", "State": "NY", "Name": "A.J. Read Science Discovery Center", "Website": "http://www.oneonta.edu/academics/sdc"}, "geometry": {"type": "Point", "coordinates": [42.47101970000001, -75.0635578]}}, {"type": "Feature", "properties": {"Address": "Central Park West at 79th Street", "City": "New York", "State": "NY", "Name": "American Museum of Natural History", "Website": "http://www.amnh.org"}, "geometry": {"type": "Point", "coordinates": [40.781543799999994, -73.97324309999998]}}, {"type": "Feature", "properties": {"Address": "PO Box 5000", "City": "Brookhaven National Laboratory", "State": "NY", "Name": "Brookhaven National Laboratory's Science Learning Center", "Website": "http://www.bnl.gov/slc"}, "geometry": {"type": "Point", "coordinates": [40.8642635, -72.87516839999998]}}, {"type": "Feature", "properties": {"Address": "145 Brooklyn Ave", "City": "Brooklyn", "State": "NY", "Name": "Brooklyn Children's Museum", "Website": "http://www.brooklynkids.org"}, "geometry": {"type": "Point", "coordinates": [40.6744006, -73.9439728]}}, {"type": "Feature", "properties": {"Address": "1020 Humboldt Pkwy", "City": "Buffalo", "State": "NY", "Name": "Buffalo Museum of Science", "Website": "http://www.sciencebuff.org/site/"}, "geometry": {"type": "Point", "coordinates": [42.90591810000001, -78.84343880000002]}}, {"type": "Feature", "properties": {"Address": "250 Jordan Rd", "City": "Troy", "State": "NY", "Name": "Children's Museum of Science and Technology", "Website": "http://www.cmost.com"}, "geometry": {"type": "Point", "coordinates": [42.6768564, -73.69767409999999]}}, {"type": "Feature", "properties": {"Address": "1 Davis Ave", "City": "Garden City", "State": "NY", "Name": "Cradle of Aviation", "Website": "http://www.cradleofaviation.org"}, "geometry": {"type": "Point", "coordinates": [40.728739000000004, -73.59676999999998]}}, {"type": "Feature", "properties": {"Address": "1 Intrepid Sq", "City": "12th Avenue & 46th Street", "State": "NY", "Name": "Intrepid Sea, Air & Space Museum", "Website": "http://www.intrepidmuseum.org"}, "geometry": {"type": "Point", "coordinates": [40.7645266, -73.99960759999998]}}, {"type": "Feature", "properties": {"Address": "698 Underwood Rd", "City": "Vestal", "State": "NY", "Name": "Kopernik Observatory & Science Center", "Website": "http://www.kopernik.org"}, "geometry": {"type": "Point", "coordinates": [42.0020481, -76.03334319999998]}}, {"type": "Feature", "properties": {"Address": "11 Davis Ave", "City": "Garden City", "State": "NY", "Name": "Long Island Children's Museum", "Website": "http://www.licm.org"}, "geometry": {"type": "Point", "coordinates": [40.72795, -73.6003581]}}, {"type": "Feature", "properties": {"Address": "101 E Broadway", "City": "Port Jefferson", "State": "NY", "Name": "Long Island Explorium", "Website": "http://www.longislandexplorium.org"}, "geometry": {"type": "Point", "coordinates": [40.948305700000006, -73.0675176]}}, {"type": "Feature", "properties": {"Address": "40 Peconic Ave Ste 30", "City": "Riverhead", "State": "NY", "Name": "Long Island Science Center", "Website": "http://www.sciencecenterli.org"}, "geometry": {"type": "Point", "coordinates": [40.9163842, -72.66218990000002]}}, {"type": "Feature", "properties": {"Address": "75 N Water St", "City": "Poughkeepsie", "State": "NY", "Name": "Mid-Hudson Children's Museum", "Website": "http://www.mhcm.org"}, "geometry": {"type": "Point", "coordinates": [41.7088238, -73.9391509]}}, {"type": "Feature", "properties": {"Address": "500 S Franklin St", "City": "Syracuse", "State": "NY", "Name": "Milton J. Rubenstein Museum of Science & Technology (MOST)", "Website": "http://www.most.org"}, "geometry": {"type": "Point", "coordinates": [43.0470405, -76.15500540000001]}}, {"type": "Feature", "properties": {"Address": "15 Nott Terrace Hts", "City": "Schenectady", "State": "NY", "Name": "miSci (Museum of Innovation and Science)", "Website": "http://www.misci.org"}, "geometry": {"type": "Point", "coordinates": [42.811829700000004, -73.93371499999998]}}, {"type": "Feature", "properties": {"Address": "1259 Trumansburg Rd", "City": "Ithaca", "State": "NY", "Name": "Museum of the Earth at the Paleontological Research Institution", "Website": "http://www.museumoftheearth.org"}, "geometry": {"type": "Point", "coordinates": [42.46647249999999, -76.5358625]}}, {"type": "Feature", "properties": {"Address": "134 W 26th St Ste 4-S", "City": "New York", "State": "NY", "Name": "National Museum of Mathematics (MoMath)", "Website": "http://www.momath.org"}, "geometry": {"type": "Point", "coordinates": [40.7453297, -73.9929523]}}, {"type": "Feature", "properties": {"Address": "4701 111th St", "City": "Corona", "State": "NY", "Name": "New York Hall of Science", "Website": "http://www.nysci.org"}, "geometry": {"type": "Point", "coordinates": [40.7472583, -73.8516925]}}, {"type": "Feature", "properties": {"Address": "130 Livingston St Fl 10", "City": "Brooklyn", "State": "NY", "Name": "New York Transit Museum", "Website": "http://www.nytransitmuseum.org/"}, "geometry": {"type": "Point", "coordinates": [40.6903881, -73.98874690000001]}}, {"type": "Feature", "properties": {"Address": "30 Front St", "City": "Binghamton", "State": "NY", "Name": "Roberson Museum and Science Center", "Website": "http://www.roberson.org"}, "geometry": {"type": "Point", "coordinates": [42.094004, -75.918655]}}, {"type": "Feature", "properties": {"Address": "657 East Ave", "City": "Rochester", "State": "NY", "Name": "Rochester Museum & Science Center", "Website": "http://www.rmsc.org"}, "geometry": {"type": "Point", "coordinates": [43.152542100000005, -77.5874632]}}, {"type": "Feature", "properties": {"Address": "154 Stone St", "City": "Watertown", "State": "NY", "Name": "Sci-Tech Center of Northern New York", "Website": "http://www.scitechcenter.org"}, "geometry": {"type": "Point", "coordinates": [43.9743822, -75.913139]}}, {"type": "Feature", "properties": {"Address": "1526 N Plandome Road", "City": "Manhasset", "State": "NY", "Name": "Science Museum of Long Island", "Website": "http://www.smli.org"}, "geometry": {"type": "Point", "coordinates": [40.8151734, -73.7018037]}}, {"type": "Feature", "properties": {"Address": "601 1st St", "City": "Ithaca", "State": "NY", "Name": "Sciencenter", "Website": "http://www.sciencenter.org"}, "geometry": {"type": "Point", "coordinates": [42.44985870000001, -76.5040649]}}, {"type": "Feature", "properties": {"Address": "1000 Richmond Ter", "City": "Staten Island", "State": "NY", "Name": "Staten Island Children's Museum", "Website": "http://www.sichildrensmuseum.org"}, "geometry": {"type": "Point", "coordinates": [40.6419122, -74.10194090000002]}}, {"type": "Feature", "properties": {"Address": "2600 Deweese Pkwy", "City": "Dayton Society of Natural History", "State": "OH", "Name": "Boonshoft Museum of Discovery", "Website": "http://www.boonshoftmuseum.org"}, "geometry": {"type": "Point", "coordinates": [39.7886375, -84.2020055]}}, {"type": "Feature", "properties": {"Address": "1301 Western Ave", "City": "Cincinnati", "State": "OH", "Name": "Cincinnati Museum Center", "Website": "http://www.cincymuseum.org"}, "geometry": {"type": "Point", "coordinates": [39.1094425, -84.5322127]}}, {"type": "Feature", "properties": {"Address": "1 Wade Oval Dr", "City": "Cleveland", "State": "OH", "Name": "Cleveland Museum of Natural History", "Website": "http://www.cmnh.org"}, "geometry": {"type": "Point", "coordinates": [41.511522, -81.61287999999998]}}, {"type": "Feature", "properties": {"Address": "333 W Broad St", "City": "Columbus", "State": "OH", "Name": "COSI", "Website": "http://www.cosi.org"}, "geometry": {"type": "Point", "coordinates": [39.959394399999994, -83.0068458]}}, {"type": "Feature", "properties": {"Address": "601 Erieside Ave", "City": "Cleveland", "State": "OH", "Name": "Great Lakes Science Center", "Website": "http://www.greatscience.com"}, "geometry": {"type": "Point", "coordinates": [41.5073182, -81.6960318]}}, {"type": "Feature", "properties": {"Address": "1 Discovery Way", "City": "Toledo", "State": "OH", "Name": "Imagination Station, Toledo", "Website": "http://www.imaginationstationtoledo.org"}, "geometry": {"type": "Point", "coordinates": [41.65193, -83.53161399999998]}}, {"type": "Feature", "properties": {"Address": "800 McKinley Monument Dr NW", "City": "Canton", "State": "OH", "Name": "McKinley Presidential Library & Museum", "Website": "http://www.mckinleymuseum.org"}, "geometry": {"type": "Point", "coordinates": [40.80623789999999, -81.3931111]}}, {"type": "Feature", "properties": {"Address": "11 W Federal St", "City": "Youngstown", "State": "OH", "Name": "OH WOW! The Roger & Gloria Jones Children's Center for Science & Technology", "Website": "http://www.ohwowkids.org"}, "geometry": {"type": "Point", "coordinates": [41.1001255, -80.6500765]}}, {"type": "Feature", "properties": {"Address": "67 Columbus Rd", "City": "Athens", "State": "OH", "Name": "Ohio Valley Museum of Discovery", "Website": "http://www.ovmod.org"}, "geometry": {"type": "Point", "coordinates": [39.33870900000001, -82.10358699999998]}}, {"type": "Feature", "properties": {"Address": "400 S Main St", "City": "Mount Vernon", "State": "OH", "Name": "SPI: Where Science and Play Intersect", "Website": "http://SPI-MountVernon.org"}, "geometry": {"type": "Point", "coordinates": [40.3898546, -82.48538620000001]}}, {"type": "Feature", "properties": {"Address": "55 S 1st St", "City": "Newark", "State": "OH", "Name": "The Works: Ohio Center for History, Art and Technology", "Website": "http://www.attheworks.org"}, "geometry": {"type": "Point", "coordinates": [40.05681939999999, -82.39861669999998]}}, {"type": "Feature", "properties": {"Address": "2020 Remington Pl", "City": "Oklahoma City", "State": "OK", "Name": "Science Museum Oklahoma", "Website": "http://www.sciencemuseumok.org"}, "geometry": {"type": "Point", "coordinates": [35.524712, -97.47465]}}, {"type": "Feature", "properties": {"Address": "560 N Maybelle Ave", "City": "Tulsa", "State": "OK", "Name": "Tulsa Children's Museum Discovery Lab", "Website": "http://www.tulsachildrensmuseum.org"}, "geometry": {"type": "Point", "coordinates": [36.1601307, -96.0042285]}}, {"type": "Feature", "properties": {"Address": "PO Box 1518", "City": "Eugene", "State": "OR", "Name": "Eugene Science Center (formerly Science Factory)", "Website": "http://www.eugenesciencecenter.org/"}, "geometry": {"type": "Point", "coordinates": [44.0520691, -123.08675359999998]}}, {"type": "Feature", "properties": {"Address": "500 NE Captain Michael King Smith Way", "City": "McMinnville", "State": "OR", "Name": "Evergreen Aviation & Space Museum", "Website": "http://www.evergreenmuseum.org"}, "geometry": {"type": "Point", "coordinates": [45.2044643, -123.145403]}}, {"type": "Feature", "properties": {"Address": "116 Marion St NE", "City": "Salem", "State": "OR", "Name": "Gilbert House Children's Museum (formerly A.C. Gilbert's Discovery Village)", "Website": "http://www.acgilbert.org"}, "geometry": {"type": "Point", "coordinates": [44.9450679, -123.04104609999999]}}, {"type": "Feature", "properties": {"Address": "1945 SE Water Ave", "City": "Portland", "State": "OR", "Name": "Oregon Museum of Science and Industry", "Website": "http://www.omsi.edu"}, "geometry": {"type": "Point", "coordinates": [45.50799979999999, -122.6656206]}}, {"type": "Feature", "properties": {"Address": "1500 E Main St", "City": "Ashland", "State": "OR", "Name": "ScienceWorks Hands-On Museum", "Website": "http://www.scienceworksmuseum.org"}, "geometry": {"type": "Point", "coordinates": [42.193447, -122.68867240000002]}}, {"type": "Feature", "properties": {"Address": "PO Box 3533", "City": "Sunriver", "State": "OR", "Name": "Sunriver Nature Center & Observatory", "Website": "http://www.sunrivernaturecenter.org"}, "geometry": {"type": "Point", "coordinates": [43.8693935, -121.43335390000001]}}, {"type": "Feature", "properties": {"Address": "1224 University of Oregon", "City": "1680 East 15th Avenue", "State": "OR", "Name": "University of Oregon Museum of Natural and Cultural History", "Website": "http://natural-history.uoregon.edu"}, "geometry": {"type": "Point", "coordinates": [44.0430232, -123.06805530000001]}}, {"type": "Feature", "properties": {"Address": "1 Allegheny Ave", "City": "Pittsburgh", "State": "PA", "Name": "Carnegie Science Center", "Website": "http://www.carnegiesciencecenter.org"}, "geometry": {"type": "Point", "coordinates": [40.4456737, -80.0180996]}}, {"type": "Feature", "properties": {"Address": "10 Childrens Way", "City": "Pittsburgh", "State": "PA", "Name": "Children's Museum of Pittsburgh", "Website": "http://www.pittsburghkids.org"}, "geometry": {"type": "Point", "coordinates": [40.4528353, -80.0064158]}}, {"type": "Feature", "properties": {"Address": "3145 Hamilton Boulevard Byp", "City": "Allentown", "State": "PA", "Name": "Da Vinci Science Center", "Website": "http://www.davincisciencecenter.org"}, "geometry": {"type": "Point", "coordinates": [40.5839131, -75.5220621]}}, {"type": "Feature", "properties": {"Address": "1224 N Atherton St", "City": "State College", "State": "PA", "Name": "Discovery Space of Central Pennsylvania", "Website": "http://www.DiscoverySpace.org"}, "geometry": {"type": "Point", "coordinates": [40.802167600000004, -77.8821917]}}, {"type": "Feature", "properties": {"Address": "211 S Columbus Blvd", "City": "Philadelphia", "State": "PA", "Name": "Independence Seaport Museum", "Website": "http://www.phillyseaport.org"}, "geometry": {"type": "Point", "coordinates": [39.9457958, -75.14058279999998]}}, {"type": "Feature", "properties": {"Address": "454 New Holland Ave", "City": "Lancaster", "State": "PA", "Name": "Lancaster Science Factory", "Website": "http://www.lancastersciencefactory.org"}, "geometry": {"type": "Point", "coordinates": [40.046182200000004, -76.2963319]}}, {"type": "Feature", "properties": {"Address": "PO Box 80", "City": "Old Zionsville", "State": "PA", "Name": "National Scenic Visitors Center", "Website": "http://www.nsvc.us"}, "geometry": {"type": "Point", "coordinates": [40.4877475, -75.5214436]}}, {"type": "Feature", "properties": {"Address": "514 Poplar St", "City": "Natl Assoc. of Watch & Clock Collectors", "State": "PA", "Name": "National Watch & Clock Museum", "Website": "http://www.nawcc.org"}, "geometry": {"type": "Point", "coordinates": [40.037203000000005, -76.50209199999998]}}, {"type": "Feature", "properties": {"Address": "400 College Ave", "City": "Lancaster", "State": "PA", "Name": "North Museum of Nature and Science", "Website": "http://www.northmuseum.org"}, "geometry": {"type": "Point", "coordinates": [40.0435764, -76.3201734]}}, {"type": "Feature", "properties": {"Address": "500 Museum Rd", "City": "Reading", "State": "PA", "Name": "Reading Public Museum", "Website": "http://www.readingpublicmuseum.org"}, "geometry": {"type": "Point", "coordinates": [40.327419, -75.95132079999998]}}, {"type": "Feature", "properties": {"Address": "1900 Benjamin Franklin Pkwy", "City": "Philadelphia", "State": "PA", "Name": "The Academy of Natural Sciences of Drexel University", "Website": "http://www.ansp.org"}, "geometry": {"type": "Point", "coordinates": [39.9569274, -75.1711368]}}, {"type": "Feature", "properties": {"Address": "222 N 20th St", "City": "Philadelphia", "State": "PA", "Name": "The Franklin Institute", "Website": "http://www.fi.edu"}, "geometry": {"type": "Point", "coordinates": [39.95813890000001, -75.17262579999998]}}, {"type": "Feature", "properties": {"Address": "300 North St", "City": "Harrisburg", "State": "PA", "Name": "The State Museum of Pennsylvania", "Website": "http://www.statemuseumpa.org"}, "geometry": {"type": "Point", "coordinates": [40.265773700000004, -76.88533749999998]}}, {"type": "Feature", "properties": {"Address": "225 Market St", "City": "Business Offices", "State": "PA", "Name": "Whitaker Center for Science and the Arts", "Website": "http://www.whitakercenter.org"}, "geometry": {"type": "Point", "coordinates": [40.2605053, -76.8804735]}}, {"type": "Feature", "properties": {"Address": "Box 1965", "City": "Manning Hall", "State": "RI", "Name": "Haffenreffer Museum of Anthropology, Brown University", "Website": "http://www.brown.edu/Haffenreffer/"}, "geometry": {"type": "Point", "coordinates": [41.8264666, -71.4038551]}}, {"type": "Feature", "properties": {"Address": "100 South St", "City": "Providence", "State": "RI", "Name": "Providence Children's Museum", "Website": "http://www.childrenmuseum.org"}, "geometry": {"type": "Point", "coordinates": [41.816512, -71.4093882]}}, {"type": "Feature", "properties": {"Address": "PO Box 1638", "City": "Columbia", "State": "SC", "Name": "EdVenture Children's Museum", "Website": "http://www.edventure.org"}, "geometry": {"type": "Point", "coordinates": [34.0007104, -81.0348144]}}, {"type": "Feature", "properties": {"Address": "402 Roper Mountain Rd", "City": "Greenville", "State": "SC", "Name": "Roper Mountain Science Center", "Website": "http://www.ropermountain.org"}, "geometry": {"type": "Point", "coordinates": [34.8400088, -82.31119040000002]}}, {"type": "Feature", "properties": {"Address": "1511 Freedom Blvd", "City": "Florence", "State": "SC", "Name": "ScienceSouth", "Website": "http://www.sciencesouth.org"}, "geometry": {"type": "Point", "coordinates": [34.1661686, -79.7527372]}}, {"type": "Feature", "properties": {"Address": "200 E Saint John St", "City": "Spartanburg", "State": "SC", "Name": "Spartanburg Science Center", "Website": "http://www.spartanburgsciencecenter.org"}, "geometry": {"type": "Point", "coordinates": [34.953105799999996, -81.9297386]}}, {"type": "Feature", "properties": {"Address": "1200 University Unit 9005", "City": "Spearfish", "State": "SD", "Name": "Black Hills State University, Sanford Center for Science Education", "Website": "http://sanfordlab.org/"}, "geometry": {"type": "Point", "coordinates": [44.4951248, -103.8717467]}}, {"type": "Feature", "properties": {"Address": "805 W Sioux Ave", "City": "Pierre", "State": "SD", "Name": "South Dakota Discovery Center", "Website": "http://www.sd-discovery.org"}, "geometry": {"type": "Point", "coordinates": [44.3718967, -100.3635182]}}, {"type": "Feature", "properties": {"Address": "301 S Main Ave", "City": "Sioux Falls", "State": "SD", "Name": "Washington Pavilion of Arts and Science", "Website": "http://www.washingtonpavilion.org"}, "geometry": {"type": "Point", "coordinates": [43.54380820000001, -96.7291119]}}, {"type": "Feature", "properties": {"Address": "800 Fort Negley Blvd", "City": "Nashville", "State": "TN", "Name": "Adventure Science Center", "Website": "http://www.adventuresci.org"}, "geometry": {"type": "Point", "coordinates": [36.1463325, -86.77564939999998]}}, {"type": "Feature", "properties": {"Address": "300 S Tulane Ave", "City": "Oak Ridge", "State": "TN", "Name": "American Museum of Science & Energy", "Website": "http://www.amse.org"}, "geometry": {"type": "Point", "coordinates": [36.010313399999994, -84.25775809999998]}}, {"type": "Feature", "properties": {"Address": "PO Box 6339", "City": "Chattanooga", "State": "TN", "Name": "Creative Discovery Museum", "Website": "http://www.cdmfun.org"}, "geometry": {"type": "Point", "coordinates": [35.0456297, -85.3096801]}}, {"type": "Feature", "properties": {"Address": "502 SE Broad St", "City": "Murfreesboro", "State": "TN", "Name": "Discovery Center at Murfree Spring", "Website": "http://www.explorethedc.org"}, "geometry": {"type": "Point", "coordinates": [35.8387098, -86.3871032]}}, {"type": "Feature", "properties": {"Address": "PO Box 1244", "City": "Johnson City", "State": "TN", "Name": "Hands On! Discovery Center", "Website": "http://www.visithandson.org"}, "geometry": {"type": "Point", "coordinates": [36.3134397, -82.35347270000001]}}, {"type": "Feature", "properties": {"Address": "101 Mitchell Blvd", "City": "Tullahoma", "State": "TN", "Name": "Hands-On Science Center", "Website": "http://www.hosc.org"}, "geometry": {"type": "Point", "coordinates": [35.363242, -86.1940075]}}, {"type": "Feature", "properties": {"Address": "3050 Central Ave", "City": "Memphis", "State": "TN", "Name": "Pink Palace Family of Museums", "Website": "http://www.memphismuseums.org"}, "geometry": {"type": "Point", "coordinates": [35.1248831, -89.9595329]}}, {"type": "Feature", "properties": {"Address": "PO Box 6204", "City": "Knoxville", "State": "TN", "Name": "The Muse Knoxville (formerly East Tennessee Discovery Center)", "Website": "http://www.themuseknoxville.org"}, "geometry": {"type": "Point", "coordinates": [35.96063839999999, -83.9207392]}}, {"type": "Feature", "properties": {"Address": "1300 S University Parks Dr", "City": "Waco", "State": "TX", "Name": "Baylor University - Mayborn Museum", "Website": "http://www.baylor.edu/mayborn"}, "geometry": {"type": "Point", "coordinates": [31.55204629999999, -97.11459559999999]}}, {"type": "Feature", "properties": {"Address": "1500 Binz St", "City": "Houston", "State": "TX", "Name": "Children's Museum of Houston", "Website": "http://www.cmhouston.org"}, "geometry": {"type": "Point", "coordinates": [29.7225935, -95.3850803]}}, {"type": "Feature", "properties": {"Address": "1900 N Chaparral Street", "City": "Corpus Christi", "State": "TX", "Name": "Corpus Christi Museum of Science & History", "Website": "http://www.ccmuseum.com"}, "geometry": {"type": "Point", "coordinates": [27.8092875, -97.3945297]}}, {"type": "Feature", "properties": {"Address": "1200 Streit Dr", "City": "Amarillo", "State": "TX", "Name": "Don Harrington Discovery Center", "Website": "http://www.dhdc.org"}, "geometry": {"type": "Point", "coordinates": [35.2002738, -101.91368059999999]}}, {"type": "Feature", "properties": {"Address": "601 N Oregon St Ste 4", "City": "El Paso", "State": "TX", "Name": "El Paso Children's Museum", "Website": NaN}, "geometry": {"type": "Point", "coordinates": [31.761442100000004, -106.4911588]}}, {"type": "Feature", "properties": {"Address": "1600 Gendy St", "City": "Fort Worth", "State": "TX", "Name": "Fort Worth Museum of Science and History", "Website": "http://www.fortworthmuseum.org"}, "geometry": {"type": "Point", "coordinates": [32.744201000000004, -97.3691391]}}, {"type": "Feature", "properties": {"Address": "1 Nature Pl", "City": "McKinney", "State": "TX", "Name": "Heard Natural Science Museum & Wildlife Sanctuary", "Website": "http://www.heardmuseum.org"}, "geometry": {"type": "Point", "coordinates": [33.15843419999999, -96.615336]}}, {"type": "Feature", "properties": {"Address": "PO Box 38", "City": "Johnson City", "State": "TX", "Name": "Hill Country Science Mill", "Website": "http://www.sciencemill.org"}, "geometry": {"type": "Point", "coordinates": [30.2767408, -98.4119811]}}, {"type": "Feature", "properties": {"Address": "1900 W Nolana Ave", "City": "McAllen", "State": "TX", "Name": "International Museum of Art and Science", "Website": "http://www.theimasonline.org/welcome/"}, "geometry": {"type": "Point", "coordinates": [26.241869800000003, -98.2336695]}}, {"type": "Feature", "properties": {"Address": "PO Box 1800", "City": "Central Texas College", "State": "TX", "Name": "Mayborn Science Theater", "Website": "http://www.starsatnight.org/"}, "geometry": {"type": "Point", "coordinates": [31.120476899999996, -97.8108488]}}, {"type": "Feature", "properties": {"Address": "3640 Dark Sky Dr", "City": "McDonald Obs", "State": "TX", "Name": "McDonald Observatory/Frank N. Bash Visitors Center", "Website": "http://www.mcdonaldobservatory.org"}, "geometry": {"type": "Point", "coordinates": [30.6798048, -104.0248334]}}, {"type": "Feature", "properties": {"Address": "2201 N Field St", "City": "Dallas", "State": "TX", "Name": "Perot Museum of Nature and Science", "Website": "http://www.perotmuseum.org"}, "geometry": {"type": "Point", "coordinates": [32.7869505, -96.8065921]}}, {"type": "Feature", "properties": {"Address": "8000 Dallas Pkwy", "City": "Frisco", "State": "TX", "Name": "Sci-Tech Discovery Center", "Website": "http://www.mindstretchingfun.org"}, "geometry": {"type": "Point", "coordinates": [33.144611600000005, -96.8349324]}}, {"type": "Feature", "properties": {"Address": "2579 S Loop 289 Ste 250", "City": "Lubbock", "State": "TX", "Name": "Science Spectrum", "Website": "http://www.sciencespectrum.org"}, "geometry": {"type": "Point", "coordinates": [33.5282998, -101.87651899999999]}}, {"type": "Feature", "properties": {"Address": "1601 Nasa Pkwy", "City": "Houston", "State": "TX", "Name": "Space Center Houston", "Website": "http://www.spacecenter.org"}, "geometry": {"type": "Point", "coordinates": [29.549782, -95.09579140000001]}}, {"type": "Feature", "properties": {"Address": "1220 Toro Grande Dr", "City": "Cedar Park", "State": "TX", "Name": "Texas Museum of Science & Technology", "Website": "http://www.txmost.org"}, "geometry": {"type": "Point", "coordinates": [30.541714199999998, -97.77588359999999]}}, {"type": "Feature", "properties": {"Address": "308 N Broadway Ave", "City": "Tyler", "State": "TX", "Name": "The Discovery Science Place", "Website": "http://www.discoveryscienceplace.org"}, "geometry": {"type": "Point", "coordinates": [32.3533719, -95.30134759999999]}}, {"type": "Feature", "properties": {"Address": "2800 Broadway St", "City": "San Antonio", "State": "TX", "Name": "The DoSeum (formerly San Antonio Children's Museum)", "Website": "http://www.thedoseum.org"}, "geometry": {"type": "Point", "coordinates": [29.452541399999998, -98.4722303]}}, {"type": "Feature", "properties": {"Address": "1515 Hermann Dr", "City": "Houston", "State": "TX", "Name": "The Health Museum", "Website": "http://www.thehealthmuseum.org"}, "geometry": {"type": "Point", "coordinates": [29.721648100000003, -95.3861436]}}, {"type": "Feature", "properties": {"Address": "1830 Simond Ave", "City": "Austin", "State": "TX", "Name": "Thinkery", "Website": "http://www.thinkeryaustin.org"}, "geometry": {"type": "Point", "coordinates": [30.2976008, -97.7048861]}}, {"type": "Feature", "properties": {"Address": "3801 Broadway St", "City": "San Antonio", "State": "TX", "Name": "Witte Museum", "Website": "http://www.wittemuseum.org"}, "geometry": {"type": "Point", "coordinates": [29.461738300000004, -98.4673103]}}, {"type": "Feature", "properties": {"Address": "110 S 400 W", "City": "at the Gateway", "State": "UT", "Name": "Clark Planetarium", "Website": "http://www.clarkplanetarium.org"}, "geometry": {"type": "Point", "coordinates": [40.76796119999999, -111.90389429999999]}}, {"type": "Feature", "properties": {"Address": "55 N Center St", "City": "Lehi", "State": "UT", "Name": "Hutchings Museum", "Website": "http://www.hutchingsmuseum.education"}, "geometry": {"type": "Point", "coordinates": [40.388666799999996, -111.849639]}}, {"type": "Feature", "properties": {"Address": "301 S Wakara Way", "City": "Rio Tinto Center", "State": "UT", "Name": "Natural History Museum of Utah", "Website": "http://nhmu.utah.edu"}, "geometry": {"type": "Point", "coordinates": [40.7641105, -111.82271270000001]}}, {"type": "Feature", "properties": {"Address": "3003 N Thanksgiving Way", "City": "Lehi", "State": "UT", "Name": "Thanksgiving Point", "Website": "http://www.thanksgivingpoint.org/"}, "geometry": {"type": "Point", "coordinates": [40.4312747, -111.9065527]}}, {"type": "Feature", "properties": {"Address": "209 E 500 S", "City": "Salt Lake City", "State": "UT", "Name": "The Leonardo", "Website": "http://www.theleonardo.org"}, "geometry": {"type": "Point", "coordinates": [40.7590455, -111.8848811]}}, {"type": "Feature", "properties": {"Address": "27 9th St", "City": "Lynchburg", "State": "VA", "Name": "Amazement Square", "Website": "http://www.amazementsquare.org"}, "geometry": {"type": "Point", "coordinates": [37.416159, -79.1404507]}}, {"type": "Feature", "properties": {"Address": "521 Middle St", "City": "Portsmouth", "State": "VA", "Name": "Children's Museum of Virginia", "Website": "http://www.childrensmuseumva.com"}, "geometry": {"type": "Point", "coordinates": [36.834718, -76.2990918]}}, {"type": "Feature", "properties": {"Address": "3949 Pender Dr Ste 120B", "City": "Fairfax", "State": "VA", "Name": "Children's Science Center", "Website": "http://www.childsci.org"}, "geometry": {"type": "Point", "coordinates": [38.8615504, -77.3319489]}}, {"type": "Feature", "properties": {"Address": "1 Waterside Dr", "City": "Norfolk", "State": "VA", "Name": "Nauticus", "Website": "http://www.nauticus.org"}, "geometry": {"type": "Point", "coordinates": [36.847782, -76.29503100000001]}}, {"type": "Feature", "properties": {"Address": "2500 W Broad St", "City": "Richmond", "State": "VA", "Name": "Science Museum of Virginia", "Website": "http://www.smv.org"}, "geometry": {"type": "Point", "coordinates": [37.56164649999999, -77.4659738]}}, {"type": "Feature", "properties": {"Address": "1 Market Sq SE", "City": "Roanoke", "State": "VA", "Name": "Science Museum of Western Virginia", "Website": "http://www.smwv.org"}, "geometry": {"type": "Point", "coordinates": [37.2715264, -79.9394691]}}, {"type": "Feature", "properties": {"Address": "19 W Cork St", "City": "Winchester", "State": "VA", "Name": "Shenandoah Valley Discovery Museum", "Website": "http://www.discoverymuseum.net"}, "geometry": {"type": "Point", "coordinates": [39.1820304, -78.1673318]}}, {"type": "Feature", "properties": {"Address": "600 Settlers Landing Rd", "City": "Hampton", "State": "VA", "Name": "Virginia Air and Space Center", "Website": "http://www.vasc.org"}, "geometry": {"type": "Point", "coordinates": [37.024085299999996, -76.34410109999999]}}, {"type": "Feature", "properties": {"Address": "PO Box 1128", "City": "524 East Main Street", "State": "VA", "Name": "Virginia Discovery Museum", "Website": "http://www.vadm.org"}, "geometry": {"type": "Point", "coordinates": [38.030067100000004, -78.4778745]}}, {"type": "Feature", "properties": {"Address": "524 J Clyde Morris Blvd", "City": "Newport News", "State": "VA", "Name": "Virginia Living Museum", "Website": "http://www.thevlm.org"}, "geometry": {"type": "Point", "coordinates": [37.0695924, -76.4796975]}}, {"type": "Feature", "properties": {"Address": "21 Starling Ave", "City": "Martinsville", "State": "VA", "Name": "Virginia Museum of Natural History", "Website": "http://www.vmnh.net"}, "geometry": {"type": "Point", "coordinates": [36.6866008, -79.86337089999998]}}, {"type": "Feature", "properties": {"Address": "1 College St", "City": "Burlington", "State": "VT", "Name": "ECHO, Leahy Center for Lake Champlain", "Website": "http://www.echovermont.org"}, "geometry": {"type": "Point", "coordinates": [44.476422899999996, -73.22100449999998]}}, {"type": "Feature", "properties": {"Address": "1302 Main St", "City": "St Johnsbury", "State": "VT", "Name": "Fairbanks Museum and Planetarium", "Website": "http://www.fairbanksmuseum.org"}, "geometry": {"type": "Point", "coordinates": [44.4200398, -72.0197531]}}, {"type": "Feature", "properties": {"Address": "1 Montshire Rd", "City": "Norwich", "State": "VT", "Name": "Montshire Museum of Science", "Website": "http://www.montshire.org"}, "geometry": {"type": "Point", "coordinates": [43.700329499999995, -72.30521590000001]}}, {"type": "Feature", "properties": {"Address": "University of Washington", "City": "Box 353010", "State": "WA", "Name": "Burke Museum of Natural History and Culture", "Website": "http://www.burkemuseum.org"}, "geometry": {"type": "Point", "coordinates": [47.6062095, -122.33207079999998]}}, {"type": "Feature", "properties": {"Address": "3407 109th St SW", "City": "Everett", "State": "WA", "Name": "Flying Heritage and Combat Armor Museum", "Website": "http://www.flyingheritage.org/"}, "geometry": {"type": "Point", "coordinates": [47.899497100000005, -122.2799935]}}, {"type": "Feature", "properties": {"Address": "1502 Wall St", "City": "Everett", "State": "WA", "Name": "Imagine Children's Museum", "Website": "http://www.ImagineCM.org"}, "geometry": {"type": "Point", "coordinates": [47.977510200000005, -122.20961670000001]}}, {"type": "Feature", "properties": {"Address": "1116 108th Ave NE", "City": "Bellevue", "State": "WA", "Name": "KidsQuest Children's Museum", "Website": "http://www.kidsquestmuseum.org"}, "geometry": {"type": "Point", "coordinates": [47.6208652, -122.1959023]}}, {"type": "Feature", "properties": {"Address": "808 W Main Ave # Oo", "City": "Spokane", "State": "WA", "Name": "Mobius Science Center", "Website": "http://www.mobiusspokane.org"}, "geometry": {"type": "Point", "coordinates": [47.6587802, -117.42604650000001]}}, {"type": "Feature", "properties": {"Address": "200 2nd Ave N", "City": "Seattle", "State": "WA", "Name": "Pacific Science Center", "Website": "http://www.pacificsciencecenter.org"}, "geometry": {"type": "Point", "coordinates": [47.619436, -122.351371]}}, {"type": "Feature", "properties": {"Address": "950 NE Nelson Ct", "City": "Pullman", "State": "WA", "Name": "Palouse Discovery Science Center", "Website": "http://www.palousescience.net/"}, "geometry": {"type": "Point", "coordinates": [46.7518196, -117.1646578]}}, {"type": "Feature", "properties": {"Address": "9404 E Marginal Way S", "City": "Tukwila", "State": "WA", "Name": "The Museum of Flight", "Website": "http://www.museumofflight.org"}, "geometry": {"type": "Point", "coordinates": [47.517993, -122.29638390000001]}}, {"type": "Feature", "properties": {"Address": "1943 Columbia Park Trl", "City": "Richland", "State": "WA", "Name": "The REACH (formerly Hanford Reach Interpretive Center)", "Website": "http://www.visitthereach.org"}, "geometry": {"type": "Point", "coordinates": [46.23603629999999, -119.2162544]}}, {"type": "Feature", "properties": {"Address": "127 S Mission St", "City": "Wenatchee", "State": "WA", "Name": "Wenatchee Valley Museum and Cultural Center", "Website": "http://www.wvmcc.org"}, "geometry": {"type": "Point", "coordinates": [47.422508799999996, -120.310849]}}, {"type": "Feature", "properties": {"Address": "1478 Midway Rd", "City": "Menasha", "State": "WI", "Name": "Barlow Planetarium @ UW-Fox Valley", "Website": "http://www.uwfox.uwc.edu/barlow-planetarium/barlow-planetarium"}, "geometry": {"type": "Point", "coordinates": [44.2311016, -88.415622]}}, {"type": "Feature", "properties": {"Address": "929 E Wisconsin Ave", "City": "Milwaukee", "State": "WI", "Name": "Betty Brinn Children's Museum", "Website": "http://www.bbcmkids.org"}, "geometry": {"type": "Point", "coordinates": [43.0388917, -87.8998749]}}, {"type": "Feature", "properties": {"Address": "220 S Barstow St", "City": "Eau Claire", "State": "WI", "Name": "Children's Museum of Eau Claire", "Website": "http://www.cmec.cc"}, "geometry": {"type": "Point", "coordinates": [44.8108648, -91.4998753]}}, {"type": "Feature", "properties": {"Address": "207 5th Ave S", "City": "La Crosse", "State": "WI", "Name": "Children's Museum of La Crosse", "Website": "http://www.funmuseum.org"}, "geometry": {"type": "Point", "coordinates": [43.81075, -91.24973100000001]}}, {"type": "Feature", "properties": {"Address": "500 N Harbor Dr", "City": "Milwaukee", "State": "WI", "Name": "Discovery World", "Website": "http://www.discoveryworld.org"}, "geometry": {"type": "Point", "coordinates": [43.036855700000004, -87.8957252]}}, {"type": "Feature", "properties": {"Address": "3000 Poberezny Rd", "City": "Oshkosh", "State": "WI", "Name": "EAA Aviation Museum", "Website": "http://www.airventuremuseum.org"}, "geometry": {"type": "Point", "coordinates": [43.9838411, -88.5763103]}}, {"type": "Feature", "properties": {"Address": "100 N Hamilton St", "City": "Madison", "State": "WI", "Name": "Madison Children's Museum", "Website": "http://www.madisonchildrensmuseum.org"}, "geometry": {"type": "Point", "coordinates": [43.0769396, -89.3843946]}}, {"type": "Feature", "properties": {"Address": "800 W Wells St", "City": "Milwaukee", "State": "WI", "Name": "Milwaukee Public Museum", "Website": "http://www.mpm.edu"}, "geometry": {"type": "Point", "coordinates": [43.04066160000001, -87.92114629999998]}}, {"type": "Feature", "properties": {"Address": "2285 S Broadway", "City": "Green Bay", "State": "WI", "Name": "National Railroad Museum", "Website": "http://www.nationalrrmuseum.org"}, "geometry": {"type": "Point", "coordinates": [44.4836013, -88.0479956]}}, {"type": "Feature", "properties": {"Address": "210 Museum Pl", "City": "Green Bay", "State": "WI", "Name": "Neville Public Museum", "Website": "http://www.nevillepublicmuseum.org"}, "geometry": {"type": "Point", "coordinates": [44.5178299, -88.01849899999998]}}, {"type": "Feature", "properties": {"Address": "100 W College Ave", "City": "Appleton", "State": "WI", "Name": "The Building for Kids", "Website": "http://www.buildingforkids.org"}, "geometry": {"type": "Point", "coordinates": [44.2620031, -88.4061483]}}, {"type": "Feature", "properties": {"Address": "1478 Midway Rd", "City": "University of Wisconsin--Fox Valley", "State": "WI", "Name": "Weis Earth Science Museum", "Website": "http://www.weismuseum.org"}, "geometry": {"type": "Point", "coordinates": [44.231328999999995, -88.415909]}}, {"type": "Feature", "properties": {"Address": "1 Clay Sq", "City": "Charleston", "State": "WV", "Name": "Clay Center for the Arts and Sciences of West Virginia", "Website": "http://www.theclaycenter.org"}, "geometry": {"type": "Point", "coordinates": [38.3480471, -81.6292619]}}, {"type": "Feature", "properties": {"Address": "2033 McCoy Rd", "City": "Huntington", "State": "WV", "Name": "Huntington Museum of Art", "Website": "http://www.hmoa.org"}, "geometry": {"type": "Point", "coordinates": [38.392752, -82.434473]}}, {"type": "Feature", "properties": {"Address": "30 22nd St", "City": "Wheeling", "State": "WV", "Name": "SMART-Center (Science, Math, Art, Research, and Technology)", "Website": "http://www.smartcenter.org"}, "geometry": {"type": "Point", "coordinates": [40.0597684, -80.7237372]}}, {"type": "Feature", "properties": {"Address": "720 Sheridan Ave", "City": "Cody", "State": "WY", "Name": "Draper Natural History Museum", "Website": "http://www.centerofthewest.org"}, "geometry": {"type": "Point", "coordinates": [44.524237899999996, -109.07420330000001]}}, {"type": "Feature", "properties": {"Address": "465 Lincoln St", "City": "Lander", "State": "WY", "Name": "Lander Children's Museum", "Website": "http://landerchildrensmuseum.org"}, "geometry": {"type": "Point", "coordinates": [42.83469059999999, -108.7341328]}}, {"type": "Feature", "properties": {"Address": "PO Box 2701", "City": "Mills", "State": "WY", "Name": "The Science Zone", "Website": "http://www.thesciencezone.org"}, "geometry": {"type": "Point", "coordinates": [42.8405206, -106.36586129999999]}}]}